last_update,location_type,state,county_name,county_name_long,fips_code,lat,lon,NCHS_urbanization,total_population,confirmed,confirmed_per_100000,deaths,deaths_per_100000
2021-11-11 06:21:50 UTC,county,Alabama,Autauga,"Autauga, Alabama, US",01001,32.53952745,-86.64408227,Medium metro,55200.0,10355,18759.06,152,275.36
2021-11-11 06:21:50 UTC,county,Alabama,Baldwin,"Baldwin, Alabama, US",01003,30.72774991,-87.72207058,Small metro,208107.0,37745,18137.3,580,278.7
2021-11-11 06:21:50 UTC,county,Alabama,Barbour,"Barbour, Alabama, US",01005,31.868263,-85.3871286,Non-core,25782.0,3622,14048.56,79,306.42
2021-11-11 06:21:50 UTC,county,Alabama,Bibb,"Bibb, Alabama, US",01007,32.99642064,-87.1251146,Large fringe metro,22527.0,4302,19097.08,92,408.4
2021-11-11 06:21:50 UTC,county,Alabama,Blount,"Blount, Alabama, US",01009,33.98210918,-86.56790593,Large fringe metro,57645.0,10547,18296.47,187,324.4
2021-11-11 06:21:50 UTC,county,Alabama,Bullock,"Bullock, Alabama, US",01011,32.10030533,-85.71265535,Non-core,10352.0,1519,14673.49,44,425.04
2021-11-11 06:21:50 UTC,county,Alabama,Butler,"Butler, Alabama, US",01013,31.75300095,-86.68057478,Non-core,20025.0,3382,16888.89,99,494.38
2021-11-11 06:21:50 UTC,county,Alabama,Calhoun,"Calhoun, Alabama, US",01015,33.77483727,-85.82630386,Small metro,115098.0,22368,19433.87,513,445.71
2021-11-11 06:21:50 UTC,county,Alabama,Chambers,"Chambers, Alabama, US",01017,32.91360079,-85.39072749,Micropolitan,33826.0,5795,17131.79,144,425.71
2021-11-11 06:21:50 UTC,county,Alabama,Cherokee,"Cherokee, Alabama, US",01019,34.17805983,-85.60638968,Non-core,25853.0,3103,12002.48,62,239.82
2021-11-11 06:21:50 UTC,county,Alabama,Chilton,"Chilton, Alabama, US",01021,32.85044126,-86.7173256,Large fringe metro,43930.0,6879,15659.0,168,382.43
2021-11-11 06:21:50 UTC,county,Alabama,Choctaw,"Choctaw, Alabama, US",01023,32.02227341,-88.2656443,Non-core,13075.0,912,6975.14,28,214.15
2021-11-11 06:21:50 UTC,county,Alabama,Clarke,"Clarke, Alabama, US",01025,31.68099859,-87.83548597,Non-core,24387.0,4815,19744.13,86,352.65
2021-11-11 06:21:50 UTC,county,Alabama,Clay,"Clay, Alabama, US",01027,33.26984193,-85.85836077,Non-core,13378.0,2484,18567.8,70,523.25
2021-11-11 06:21:50 UTC,county,Alabama,Cleburne,"Cleburne, Alabama, US",01029,33.67679204,-85.52005899,Non-core,14938.0,2517,16849.65,60,401.66
2021-11-11 06:21:50 UTC,county,Alabama,Coffee,"Coffee, Alabama, US",01031,31.39932826,-85.98901039,Micropolitan,51288.0,9355,18240.13,194,378.26
2021-11-11 06:21:50 UTC,county,Alabama,Colbert,"Colbert, Alabama, US",01033,34.69847452,-87.80168544,Small metro,54495.0,9199,16880.45,206,378.02
2021-11-11 06:21:50 UTC,county,Alabama,Conecuh,"Conecuh, Alabama, US",01035,31.43401703,-86.99320044,Non-core,12514.0,1906,15230.94,60,479.46
2021-11-11 06:21:50 UTC,county,Alabama,Coosa,"Coosa, Alabama, US",01037,32.93690146,-86.24847739,Micropolitan,10855.0,1831,16867.8,43,396.13
2021-11-11 06:21:50 UTC,county,Alabama,Covington,"Covington, Alabama, US",01039,31.2477854,-86.45050893,Non-core,37351.0,6785,18165.51,191,511.37
2021-11-11 06:21:50 UTC,county,Alabama,Crenshaw,"Crenshaw, Alabama, US",01041,31.72941803,-86.31593104,Non-core,13865.0,2556,18434.91,75,540.93
2021-11-11 06:21:50 UTC,county,Alabama,Cullman,"Cullman, Alabama, US",01043,34.13020303,-86.86888037,Micropolitan,82313.0,15835,19237.54,299,363.25
2021-11-11 06:21:50 UTC,county,Alabama,Dale,"Dale, Alabama, US",01045,31.43037123,-85.61095742,Micropolitan,49255.0,8975,18221.5,186,377.63
2021-11-11 06:21:50 UTC,county,Alabama,Dallas,"Dallas, Alabama, US",01047,32.32688101,-87.1086671,Micropolitan,40029.0,5249,13112.99,207,517.13
2021-11-11 06:21:50 UTC,county,Alabama,DeKalb,"DeKalb, Alabama, US",01049,34.45946862,-85.80782906,Non-core,71200.0,12775,17942.42,268,376.4
2021-11-11 06:21:50 UTC,county,Alabama,Elmore,"Elmore, Alabama, US",01051,32.59785413,-86.14415284,Medium metro,81212.0,15719,19355.51,290,357.09
2021-11-11 06:21:50 UTC,county,Alabama,Escambia,"Escambia, Alabama, US",01053,31.1256789,-87.15918694,Non-core,37328.0,6894,18468.71,139,372.37
2021-11-11 06:21:50 UTC,county,Alabama,Etowah,"Etowah, Alabama, US",01055,34.04567266,-86.04051873,Small metro,102939.0,19953,19383.32,513,498.35
2021-11-11 06:21:50 UTC,county,Alabama,Fayette,"Fayette, Alabama, US",01057,33.72076938,-87.73886638,Non-core,16585.0,3174,19137.78,85,512.51
2021-11-11 06:21:50 UTC,county,Alabama,Franklin,"Franklin, Alabama, US",01059,34.44235334,-87.84289505,Non-core,31542.0,6184,19605.61,107,339.23
2021-11-11 06:21:50 UTC,county,Alabama,Geneva,"Geneva, Alabama, US",01061,31.09389027,-85.83572839,Small metro,26491.0,4608,17394.59,132,498.28
2021-11-11 06:21:50 UTC,county,Alabama,Greene,"Greene, Alabama, US",01063,32.85504247,-87.95684022,Non-core,8426.0,1288,15286.02,44,522.19
2021-11-11 06:21:50 UTC,county,Alabama,Hale,"Hale, Alabama, US",01065,32.76039258,-87.63284988,Small metro,14887.0,3148,21145.97,88,591.12
2021-11-11 06:21:50 UTC,county,Alabama,Henry,"Henry, Alabama, US",01067,31.51148016,-85.24267944,Small metro,17124.0,3171,18517.87,66,385.42
2021-11-11 06:21:50 UTC,county,Alabama,Houston,"Houston, Alabama, US",01069,31.15197924,-85.29939599,Small metro,104352.0,17597,16863.12,419,401.53
2021-11-11 06:21:50 UTC,county,Alabama,Jackson,"Jackson, Alabama, US",01071,34.78144169,-85.99750489,Micropolitan,52094.0,10111,19409.15,193,370.48
2021-11-11 06:21:50 UTC,county,Alabama,Jefferson,"Jefferson, Alabama, US",01073,33.55554728,-86.895063,Large central metro,659892.0,115832,17553.18,1989,301.41
2021-11-11 06:21:50 UTC,county,Alabama,Lamar,"Lamar, Alabama, US",01075,33.77995024,-88.09668032,Non-core,13933.0,2414,17325.77,51,366.04
2021-11-11 06:21:50 UTC,county,Alabama,Lauderdale,"Lauderdale, Alabama, US",01077,34.90171875,-87.65624729,Small metro,92585.0,14775,15958.31,303,327.27
2021-11-11 06:21:50 UTC,county,Alabama,Lawrence,"Lawrence, Alabama, US",01079,34.52041498,-87.31069453,Small metro,33171.0,4696,14156.94,125,376.84
2021-11-11 06:21:50 UTC,county,Alabama,Lee,"Lee, Alabama, US",01081,32.60154883,-85.35132246,Small metro,159287.0,25375,15930.36,260,163.23
2021-11-11 06:21:50 UTC,county,Alabama,Limestone,"Limestone, Alabama, US",01083,34.81185586,-86.98310072,Medium metro,93052.0,15918,17106.56,217,233.2
2021-11-11 06:21:50 UTC,county,Alabama,Lowndes,"Lowndes, Alabama, US",01085,32.1597283,-86.65158371,Medium metro,10236.0,1778,17370.07,67,654.55
2021-11-11 06:21:50 UTC,county,Alabama,Macon,"Macon, Alabama, US",01087,32.38759944,-85.69267724,Non-core,19054.0,2429,12747.98,64,335.89
2021-11-11 06:21:50 UTC,county,Alabama,Madison,"Madison, Alabama, US",01089,34.76327133,-86.55069633,Medium metro,357560.0,52830,14775.14,722,201.92
2021-11-11 06:21:50 UTC,county,Alabama,Marengo,"Marengo, Alabama, US",01091,32.24767634,-87.78796182,Non-core,19538.0,3407,17437.81,93,476.0
2021-11-11 06:21:50 UTC,county,Alabama,Marion,"Marion, Alabama, US",01093,34.13697363,-87.88704173,Non-core,29965.0,5341,17824.13,128,427.17
2021-11-11 06:21:50 UTC,county,Alabama,Marshall,"Marshall, Alabama, US",01095,34.36975964,-86.30486727,Micropolitan,95145.0,18666,19618.48,312,327.92
2021-11-11 06:21:50 UTC,county,Alabama,Mobile,"Mobile, Alabama, US",01097,30.78472347,-88.20842409,Medium metro,414659.0,73606,17750.97,1366,329.43
2021-11-11 06:21:50 UTC,county,Alabama,Monroe,"Monroe, Alabama, US",01099,31.56729412,-87.36995001,Non-core,21512.0,3346,15554.11,66,306.81
2021-11-11 06:21:50 UTC,county,Alabama,Montgomery,"Montgomery, Alabama, US",01101,32.2206831,-86.20969272,Medium metro,226941.0,34307,15117.14,777,342.38
2021-11-11 06:21:50 UTC,county,Alabama,Morgan,"Morgan, Alabama, US",01103,34.45500589,-86.85475946,Small metro,119122.0,22124,18572.56,398,334.11
2021-11-11 06:21:50 UTC,county,Alabama,Perry,"Perry, Alabama, US",01105,32.64048341,-87.29770589,Non-core,9486.0,1416,14927.26,40,421.67
2021-11-11 06:21:50 UTC,county,Alabama,Pickens,"Pickens, Alabama, US",01107,33.28094866,-88.08818103,Small metro,20298.0,3283,16174.01,85,418.76
2021-11-11 06:21:50 UTC,county,Alabama,Pike,"Pike, Alabama, US",01109,31.80396383,-85.9408295,Micropolitan,33403.0,5059,15145.35,108,323.32
2021-11-11 06:21:50 UTC,county,Alabama,Randolph,"Randolph, Alabama, US",01111,33.29526734,-85.45708831,Non-core,22574.0,3321,14711.62,66,292.37
2021-11-11 06:21:50 UTC,county,Alabama,Russell,"Russell, Alabama, US",01113,32.28725256,-85.18415324,Medium metro,58213.0,7014,12048.86,62,106.51
2021-11-11 06:21:50 UTC,county,Alabama,Shelby,"Shelby, Alabama, US",01117,33.26879845,-86.66232561,Large fringe metro,211261.0,38042,18007.11,362,171.35
2021-11-11 06:21:50 UTC,county,Alabama,St. Clair,"St. Clair, Alabama, US",01115,33.71902176,-86.31029372,Large fringe metro,87306.0,16782,19222.05,350,400.89
2021-11-11 06:21:50 UTC,county,Alabama,Sumter,"Sumter, Alabama, US",01119,32.59117397,-88.19916205,Non-core,12985.0,1359,10465.92,40,308.05
2021-11-11 06:21:50 UTC,county,Alabama,Talladega,"Talladega, Alabama, US",01121,33.37823223,-86.16886178,Micropolitan,80565.0,14069,17462.92,292,362.44
2021-11-11 06:21:50 UTC,county,Alabama,Tallapoosa,"Tallapoosa, Alabama, US",01123,32.86698258,-85.79833053,Non-core,40636.0,7186,17683.83,202,497.1
2021-11-11 06:21:50 UTC,county,Alabama,Tuscaloosa,"Tuscaloosa, Alabama, US",01125,33.28726072,-87.52556818,Small metro,206213.0,35585,17256.43,632,306.48
2021-11-11 06:21:50 UTC,county,Alabama,Walker,"Walker, Alabama, US",01127,33.80270512,-87.30027177,Large fringe metro,64493.0,11781,18267.1,376,583.01
2021-11-11 06:21:50 UTC,county,Alabama,Washington,"Washington, Alabama, US",01129,31.4092794,-88.20689944,Non-core,16643.0,2548,15309.74,52,312.44
2021-11-11 06:21:50 UTC,county,Alabama,Wilcox,"Wilcox, Alabama, US",01131,31.98773215,-87.30891118,Non-core,10809.0,1733,16032.94,38,351.56
2021-11-11 06:21:50 UTC,county,Alabama,Winston,"Winston, Alabama, US",01133,34.15030532,-87.37325922,Non-core,23875.0,4748,19886.91,105,439.79
2021-11-11 06:21:50 UTC,county,Alaska,Aleutians East,"Aleutians East, Alaska, US",02013,55.32222414,-161.9722021,Non-core,3425.0,446,13021.9,3,87.59
2021-11-11 06:21:50 UTC,county,Alaska,Aleutians West,"Aleutians West, Alaska, US",02016,52.3233,-174.1596,Non-core,5750.0,940,16347.83,2,34.78
2021-11-11 06:21:50 UTC,county,Alaska,Anchorage,"Anchorage, Alaska, US",02020,61.14998174,-149.1426986,Medium metro,296112.0,59221,19999.53,379,127.99
2021-11-11 06:21:50 UTC,county,Alaska,Bethel,"Bethel, Alaska, US",02050,60.90980451,-159.8561831,Non-core,18040.0,6338,35133.04,27,149.67
2021-11-11 06:21:50 UTC,county,Alaska,Bristol Bay,"Bristol Bay, Alaska, US",02060,58.74513976,-156.701064,Non-core,890.0,0,0.0,0,0.0
2021-11-11 06:21:50 UTC,county,Alaska,Bristol Bay plus Lake and Peninsula,"Bristol Bay plus Lake and Peninsula, Alaska, US",02164,58.62403337,-156.2140589,Non-core,1375.0,518,37672.73,0,0.0
2021-11-11 06:21:50 UTC,county,Alaska,Chugach,"Chugach, Alaska, US",02063,61.16666,-149.9,,,1181,,8,
2021-11-11 06:21:50 UTC,county,Alaska,Copper River,"Copper River, Alaska, US",02066,60.3886,-162.8905196,,,610,,2,
2021-11-11 06:21:50 UTC,county,Alaska,Denali,"Denali, Alaska, US",02068,63.67264044,-150.0076108,Non-core,2232.0,286,12813.62,1,44.8
2021-11-11 06:21:50 UTC,county,Alaska,Dillingham,"Dillingham, Alaska, US",02070,59.79603738,-158.2381942,Non-core,4975.0,918,18452.26,7,140.7
2021-11-11 06:21:50 UTC,county,Alaska,Fairbanks North Star,"Fairbanks North Star, Alaska, US",02090,64.80726247,-146.5692662,Small metro,99653.0,16416,16473.16,104,104.36
2021-11-11 06:21:50 UTC,county,Alaska,Haines,"Haines, Alaska, US",02100,59.09893571,-135.4679843,Non-core,2518.0,236,9372.52,1,39.71
2021-11-11 06:21:50 UTC,county,Alaska,Juneau,"Juneau, Alaska, US",02110,58.45031811,-134.200436,Micropolitan,32330.0,4042,12502.32,13,40.21
2021-11-11 06:21:50 UTC,county,Alaska,Kenai Peninsula,"Kenai Peninsula, Alaska, US",02122,60.24429722,-151.5388884,Non-core,58220.0,11515,19778.43,65,111.65
2021-11-11 06:21:50 UTC,county,Alaska,Ketchikan Gateway,"Ketchikan Gateway, Alaska, US",02130,55.57445008,-130.975561,Micropolitan,13804.0,1811,13119.39,12,86.93
2021-11-11 06:21:50 UTC,county,Alaska,Kodiak Island,"Kodiak Island, Alaska, US",02150,57.65529415,-153.7493579,Non-core,13649.0,2645,19378.71,9,65.94
2021-11-11 06:21:50 UTC,county,Alaska,Kusilvak,"Kusilvak, Alaska, US",02158,62.1542916,-163.3967883,Non-core,8198.0,2132,26006.34,8,97.58
2021-11-11 06:21:50 UTC,county,Alaska,Matanuska-Susitna,"Matanuska-Susitna, Alaska, US",02170,62.31305045,-149.5741743,Medium metro,103464.0,23137,22362.37,136,131.45
2021-11-11 06:21:50 UTC,county,Alaska,Nome,"Nome, Alaska, US",02180,64.90320724,-164.0353804,Non-core,9925.0,1871,18851.39,2,20.15
2021-11-11 06:21:50 UTC,county,Alaska,North Slope,"North Slope, Alaska, US",02185,69.31479216,-153.4836093,Non-core,9797.0,2771,28284.17,7,71.45
2021-11-11 06:21:50 UTC,county,Alaska,Northwest Arctic,"Northwest Arctic, Alaska, US",02188,67.04919196,-159.7503946,Non-core,7734.0,1980,25601.24,10,129.3
2021-11-11 06:21:50 UTC,county,Alaska,Petersburg,"Petersburg, Alaska, US",02195,57.13978948,-132.9540995,Non-core,3255.0,363,11152.07,3,92.17
2021-11-11 06:21:50 UTC,county,Alaska,Prince of Wales-Hyder,"Prince of Wales-Hyder, Alaska, US",02198,55.76261984,-133.0511621,Non-core,6474.0,544,8402.84,6,92.68
2021-11-11 06:21:50 UTC,county,Alaska,Sitka,"Sitka, Alaska, US",02220,57.24124555,-135.3206587,Non-core,8738.0,1213,13881.9,5,57.22
2021-11-11 06:21:50 UTC,county,Alaska,Skagway,"Skagway, Alaska, US",02230,59.56149996,-135.3337748,Non-core,1061.0,90,8482.56,0,0.0
2021-11-11 06:21:50 UTC,county,Alaska,Southeast Fairbanks,"Southeast Fairbanks, Alaska, US",02240,63.87692095,-143.2127643,Non-core,6876.0,1332,19371.73,11,159.98
2021-11-11 06:21:50 UTC,county,Alaska,Valdez-Cordova,"Valdez-Cordova, Alaska, US",02261,61.47502768,-144.7126799,Non-core,9301.0,0,0.0,0,0.0
2021-11-11 06:21:50 UTC,county,Alaska,Wrangell,"Wrangell, Alaska, US",02275,56.3202004,-132.0583731,Non-core,2484.0,173,6964.57,0,0.0
2021-11-11 06:21:50 UTC,county,Alaska,Yakutat,"Yakutat, Alaska, US",02282,59.8909808,-140.3601451,Non-core,689.0,269,39042.09,2,290.28
2021-11-11 06:21:50 UTC,county,Alaska,Yukon-Koyukuk,"Yukon-Koyukuk, Alaska, US",02290,65.50815459,-151.3907387,Non-core,5415.0,773,14275.16,7,129.27
2021-11-11 06:21:50 UTC,county,Arizona,Apache,"Apache, Arizona, US",04001,35.39465006,-109.4892383,Non-core,71522.0,14629,20453.85,494,690.7
2021-11-11 06:21:50 UTC,county,Arizona,Cochise,"Cochise, Arizona, US",04003,31.87934684,-109.7516088,Small metro,126279.0,16651,13185.88,361,285.87
2021-11-11 06:21:50 UTC,county,Arizona,Coconino,"Coconino, Arizona, US",04005,35.83883429,-111.7707178,Small metro,140217.0,24003,17118.47,371,264.59
2021-11-11 06:21:50 UTC,county,Arizona,Gila,"Gila, Arizona, US",04007,33.80190085,-110.8132779,Micropolitan,53400.0,10193,19088.01,268,501.87
2021-11-11 06:21:50 UTC,county,Arizona,Graham,"Graham, Arizona, US",04009,32.93166885,-109.8882178,Micropolitan,37879.0,7937,20953.56,121,319.44
2021-11-11 06:21:50 UTC,county,Arizona,Greenlee,"Greenlee, Arizona, US",04011,33.21498827,-109.2405279,Non-core,9504.0,1241,13057.66,16,168.35
2021-11-11 06:21:50 UTC,county,Arizona,La Paz,"La Paz, Arizona, US",04012,33.72854224,-113.9810029,Non-core,20701.0,3259,15743.2,100,483.07
2021-11-11 06:21:50 UTC,county,Arizona,Maricopa,"Maricopa, Arizona, US",04013,33.34835867,-112.4918154,Large central metro,4253913.0,758552,17831.86,12397,291.43
2021-11-11 06:21:50 UTC,county,Arizona,Mohave,"Mohave, Arizona, US",04015,35.70471703,-113.7577902,Small metro,206064.0,34338,16663.75,1005,487.71
2021-11-11 06:21:50 UTC,county,Arizona,Navajo,"Navajo, Arizona, US",04017,35.3997715,-110.3218983,Micropolitan,108705.0,22529,20724.9,643,591.51
2021-11-11 06:21:50 UTC,county,Arizona,Pima,"Pima, Arizona, US",04019,32.0971334,-111.7890033,Medium metro,1019722.0,148962,14608.1,2789,273.51
2021-11-11 06:21:50 UTC,county,Arizona,Pinal,"Pinal, Arizona, US",04021,32.90525627,-111.3449483,Large fringe metro,419721.0,76035,18115.61,1121,267.08
2021-11-11 06:21:50 UTC,county,Arizona,Santa Cruz,"Santa Cruz, Arizona, US",04023,31.52508998,-110.8479088,Micropolitan,46584.0,9307,19978.96,194,416.45
2021-11-11 06:21:50 UTC,county,Arizona,Yavapai,"Yavapai, Arizona, US",04025,34.59933926,-112.5538588,Small metro,224645.0,29646,13196.82,727,323.62
2021-11-11 06:21:50 UTC,county,Arizona,Yuma,"Yuma, Arizona, US",04027,32.76895712,-113.9066674,Small metro,207829.0,41995,20206.52,918,441.71
2021-11-11 06:21:50 UTC,county,Arkansas,Arkansas,"Arkansas, Arkansas, US",05001,34.29145151,-91.37277296,Non-core,18124.0,3513,19383.14,60,331.05
2021-11-11 06:21:50 UTC,county,Arkansas,Ashley,"Ashley, Arkansas, US",05003,33.19153461,-91.7698471,Non-core,20537.0,3203,15596.24,50,243.46
2021-11-11 06:21:50 UTC,county,Arkansas,Baxter,"Baxter, Arkansas, US",05005,36.28784385,-92.33782872,Micropolitan,41219.0,5953,14442.37,182,441.54
2021-11-11 06:21:50 UTC,county,Arkansas,Benton,"Benton, Arkansas, US",05007,36.33644656,-94.25680817,Medium metro,258980.0,42778,16517.88,617,238.24
2021-11-11 06:21:50 UTC,county,Arkansas,Boone,"Boone, Arkansas, US",05009,36.3084504,-93.09374925,Micropolitan,37288.0,6290,16868.7,128,343.27
2021-11-11 06:21:50 UTC,county,Arkansas,Bradley,"Bradley, Arkansas, US",05011,33.46755808,-92.15980837,Non-core,10948.0,1985,18131.17,41,374.5
2021-11-11 06:21:50 UTC,county,Arkansas,Calhoun,"Calhoun, Arkansas, US",05013,33.55598792,-92.49974403,Micropolitan,5202.0,594,11418.69,8,153.79
2021-11-11 06:21:50 UTC,county,Arkansas,Carroll,"Carroll, Arkansas, US",05015,36.3403856,-93.54270261,Non-core,27887.0,4327,15516.19,75,268.94
2021-11-11 06:21:50 UTC,county,Arkansas,Chicot,"Chicot, Arkansas, US",05017,33.26458973,-91.29539209,Non-core,10826.0,2026,18714.21,47,434.14
2021-11-11 06:21:50 UTC,county,Arkansas,Clark,"Clark, Arkansas, US",05019,34.04613432,-93.17484713,Micropolitan,22385.0,3292,14706.28,59,263.57
2021-11-11 06:21:50 UTC,county,Arkansas,Clay,"Clay, Arkansas, US",05021,36.36826212,-90.4148172,Non-core,15061.0,2737,18172.76,73,484.7
2021-11-11 06:21:50 UTC,county,Arkansas,Cleburne,"Cleburne, Arkansas, US",05023,35.53864922,-92.02640019,Non-core,25230.0,3818,15132.78,93,368.61
2021-11-11 06:21:50 UTC,county,Arkansas,Cleveland,"Cleveland, Arkansas, US",05025,33.89723187,-92.18537045,Small metro,8226.0,1432,17408.22,33,401.17
2021-11-11 06:21:50 UTC,county,Arkansas,Columbia,"Columbia, Arkansas, US",05027,33.21230701,-93.22642793,Micropolitan,23892.0,3393,14201.41,74,309.73
2021-11-11 06:21:50 UTC,county,Arkansas,Conway,"Conway, Arkansas, US",05029,35.26205537,-92.70506566,Non-core,20906.0,3179,15206.16,45,215.25
2021-11-11 06:21:50 UTC,county,Arkansas,Craighead,"Craighead, Arkansas, US",05031,35.83018283,-90.63235729,Small metro,105701.0,21709,20538.12,246,232.73
2021-11-11 06:21:50 UTC,county,Arkansas,Crawford,"Crawford, Arkansas, US",05033,35.58928601,-94.2446814,Medium metro,62472.0,10890,17431.81,177,283.33
2021-11-11 06:21:50 UTC,county,Arkansas,Crittenden,"Crittenden, Arkansas, US",05035,35.21247318,-90.30839406,Large fringe metro,49013.0,8861,18078.88,179,365.21
2021-11-11 06:21:50 UTC,county,Arkansas,Cross,"Cross, Arkansas, US",05037,35.29631396,-90.77185818,Non-core,16998.0,3005,17678.55,65,382.4
2021-11-11 06:21:50 UTC,county,Arkansas,Dallas,"Dallas, Arkansas, US",05039,33.97042763,-92.65167437,Non-core,7432.0,1140,15339.07,19,255.65
2021-11-11 06:21:50 UTC,county,Arkansas,Desha,"Desha, Arkansas, US",05041,33.83011025,-91.25500948,Non-core,11887.0,1919,16143.69,33,277.61
2021-11-11 06:21:50 UTC,county,Arkansas,Drew,"Drew, Arkansas, US",05043,33.59035001,-91.71777921,Non-core,18502.0,2921,15787.48,54,291.86
2021-11-11 06:21:50 UTC,county,Arkansas,Faulkner,"Faulkner, Arkansas, US",05045,35.14719007,-92.33717519,Medium metro,122416.0,19733,16119.62,225,183.8
2021-11-11 06:21:50 UTC,county,Arkansas,Franklin,"Franklin, Arkansas, US",05047,35.51202821,-93.89299569,Non-core,17780.0,2751,15472.44,53,298.09
2021-11-11 06:21:50 UTC,county,Arkansas,Fulton,"Fulton, Arkansas, US",05049,36.38177105,-91.81729127,Non-core,12139.0,1754,14449.3,64,527.23
2021-11-11 06:21:50 UTC,county,Arkansas,Garland,"Garland, Arkansas, US",05051,34.57692074,-93.14921604,Small metro,98296.0,16054,16332.3,397,403.88
2021-11-11 06:21:50 UTC,county,Arkansas,Grant,"Grant, Arkansas, US",05053,34.29017991,-92.42320562,Medium metro,18086.0,2887,15962.62,50,276.46
2021-11-11 06:21:50 UTC,county,Arkansas,Greene,"Greene, Arkansas, US",05055,36.1173546,-90.55832668,Micropolitan,44623.0,10196,22849.2,124,277.88
2021-11-11 06:21:50 UTC,county,Arkansas,Hempstead,"Hempstead, Arkansas, US",05057,33.73325583,-93.66935133,Non-core,22018.0,2973,13502.59,41,186.21
2021-11-11 06:21:50 UTC,county,Arkansas,Hot Spring,"Hot Spring, Arkansas, US",05059,34.31709259,-92.95396325,Micropolitan,33520.0,7692,22947.49,107,319.21
2021-11-11 06:21:50 UTC,county,Arkansas,Howard,"Howard, Arkansas, US",05061,34.09007427,-93.9934871,Non-core,13389.0,2476,18492.79,38,283.82
2021-11-11 06:21:50 UTC,county,Arkansas,Independence,"Independence, Arkansas, US",05063,35.74242707,-91.57001641,Micropolitan,37264.0,6485,17402.86,159,426.69
2021-11-11 06:21:50 UTC,county,Arkansas,Izard,"Izard, Arkansas, US",05065,36.09604046,-91.90847954,Non-core,13559.0,2569,18946.82,55,405.63
2021-11-11 06:21:50 UTC,county,Arkansas,Jackson,"Jackson, Arkansas, US",05067,35.59802983,-91.21494602,Non-core,17225.0,4400,25544.27,46,267.05
2021-11-11 06:21:50 UTC,county,Arkansas,Jefferson,"Jefferson, Arkansas, US",05069,34.26767081,-91.92619839,Small metro,70424.0,12383,17583.49,228,323.75
2021-11-11 06:21:50 UTC,county,Arkansas,Johnson,"Johnson, Arkansas, US",05071,35.56759135,-93.46036368,Non-core,26291.0,4648,17679.05,58,220.61
2021-11-11 06:21:50 UTC,county,Arkansas,Lafayette,"Lafayette, Arkansas, US",05073,33.24116713,-93.60677071,Non-core,6915.0,853,12335.5,28,404.92
2021-11-11 06:21:50 UTC,county,Arkansas,Lawrence,"Lawrence, Arkansas, US",05075,36.04188196,-91.10867198,Non-core,16669.0,3354,20121.18,58,347.95
2021-11-11 06:21:50 UTC,county,Arkansas,Lee,"Lee, Arkansas, US",05077,34.78498904,-90.78383866,Non-core,9398.0,2153,22909.13,52,553.31
2021-11-11 06:21:50 UTC,county,Arkansas,Lincoln,"Lincoln, Arkansas, US",05079,33.95317155,-91.74002806,Small metro,13695.0,3661,26732.38,57,416.21
2021-11-11 06:21:50 UTC,county,Arkansas,Little River,"Little River, Arkansas, US",05081,33.70375665,-94.23468591,Small metro,12417.0,2101,16920.35,79,636.22
2021-11-11 06:21:50 UTC,county,Arkansas,Logan,"Logan, Arkansas, US",05083,35.21413234,-93.71951016,Non-core,21757.0,3670,16868.13,49,225.21
2021-11-11 06:21:50 UTC,county,Arkansas,Lonoke,"Lonoke, Arkansas, US",05085,34.75392199,-91.88742357,Medium metro,72206.0,12088,16740.99,175,242.36
2021-11-11 06:21:50 UTC,county,Arkansas,Madison,"Madison, Arkansas, US",05087,36.01038185,-93.72524943,Medium metro,16076.0,2499,15544.91,40,248.82
2021-11-11 06:21:50 UTC,county,Arkansas,Marion,"Marion, Arkansas, US",05089,36.26844485,-92.68451899,Non-core,16438.0,2174,13225.45,59,358.92
2021-11-11 06:21:50 UTC,county,Arkansas,Miller,"Miller, Arkansas, US",05091,33.31403423,-93.89285258,Small metro,43759.0,6550,14968.35,131,299.37
2021-11-11 06:21:50 UTC,county,Arkansas,Mississippi,"Mississippi, Arkansas, US",05093,35.76271485,-90.0519437,Micropolitan,42831.0,8420,19658.66,143,333.87
2021-11-11 06:21:50 UTC,county,Arkansas,Monroe,"Monroe, Arkansas, US",05095,34.6815935,-91.20540287,Non-core,7249.0,1197,16512.62,25,344.88
2021-11-11 06:21:50 UTC,county,Arkansas,Montgomery,"Montgomery, Arkansas, US",05097,34.53704874,-93.65824478,Non-core,8993.0,1141,12687.65,46,511.51
2021-11-11 06:21:50 UTC,county,Arkansas,Nevada,"Nevada, Arkansas, US",05099,33.66340119,-93.30632432,Non-core,8440.0,1386,16421.8,39,462.09
2021-11-11 06:21:50 UTC,county,Arkansas,Newton,"Newton, Arkansas, US",05101,35.91947491,-93.21612969,Micropolitan,7848.0,1176,14984.71,37,471.46
2021-11-11 06:21:50 UTC,county,Arkansas,Ouachita,"Ouachita, Arkansas, US",05103,33.58839816,-92.87795984,Micropolitan,24106.0,3421,14191.49,85,352.61
2021-11-11 06:21:50 UTC,county,Arkansas,Perry,"Perry, Arkansas, US",05105,34.9459153,-92.94372564,Medium metro,10322.0,1540,14919.59,22,213.14
2021-11-11 06:21:50 UTC,county,Arkansas,Phillips,"Phillips, Arkansas, US",05107,34.43268455,-90.84800154,Micropolitan,19034.0,3220,16917.1,77,404.54
2021-11-11 06:21:50 UTC,county,Arkansas,Pike,"Pike, Arkansas, US",05109,34.16250414,-93.65789349,Non-core,10808.0,1726,15969.65,36,333.09
2021-11-11 06:21:50 UTC,county,Arkansas,Poinsett,"Poinsett, Arkansas, US",05111,35.57433534,-90.66268713,Small metro,24054.0,4981,20707.57,101,419.89
2021-11-11 06:21:50 UTC,county,Arkansas,Polk,"Polk, Arkansas, US",05113,34.48254879,-94.22728802,Non-core,20163.0,2997,14863.86,112,555.47
2021-11-11 06:21:50 UTC,county,Arkansas,Pope,"Pope, Arkansas, US",05115,35.44871474,-93.03212219,Micropolitan,63644.0,12062,18952.3,159,249.83
2021-11-11 06:21:50 UTC,county,Arkansas,Prairie,"Prairie, Arkansas, US",05117,34.83624419,-91.55162157,Non-core,8244.0,1283,15562.83,29,351.77
2021-11-11 06:21:50 UTC,county,Arkansas,Pulaski,"Pulaski, Arkansas, US",05119,34.77054088,-92.31355101,Medium metro,393463.0,59214,15049.45,921,234.08
2021-11-11 06:21:50 UTC,county,Arkansas,Randolph,"Randolph, Arkansas, US",05121,36.3415714,-91.02455531,Non-core,17603.0,3375,19172.87,60,340.85
2021-11-11 06:21:50 UTC,county,Arkansas,Saline,"Saline, Arkansas, US",05125,34.64916145,-92.67583224,Medium metro,118009.0,18666,15817.44,246,208.46
2021-11-11 06:21:50 UTC,county,Arkansas,Scott,"Scott, Arkansas, US",05127,34.85588887,-94.0632176,Non-core,10442.0,1738,16644.32,30,287.3
2021-11-11 06:21:50 UTC,county,Arkansas,Searcy,"Searcy, Arkansas, US",05129,35.9109364,-92.69936482,Non-core,7923.0,1269,16016.66,24,302.92
2021-11-11 06:21:50 UTC,county,Arkansas,Sebastian,"Sebastian, Arkansas, US",05131,35.19605503,-94.27162713,Medium metro,127461.0,22687,17799.17,387,303.62
2021-11-11 06:21:50 UTC,county,Arkansas,Sevier,"Sevier, Arkansas, US",05133,33.99780401,-94.2424869,Non-core,17193.0,3996,23242.02,53,308.26
2021-11-11 06:21:50 UTC,county,Arkansas,Sharp,"Sharp, Arkansas, US",05135,36.16258158,-91.47819342,Non-core,17043.0,2967,17408.91,69,404.86
2021-11-11 06:21:50 UTC,county,Arkansas,St. Francis,"St. Francis, Arkansas, US",05123,35.02201976,-90.74828138,Micropolitan,26294.0,4861,18487.11,69,262.42
2021-11-11 06:21:50 UTC,county,Arkansas,Stone,"Stone, Arkansas, US",05137,35.86251946,-92.15684085,Non-core,12446.0,1792,14398.2,44,353.53
2021-11-11 06:21:50 UTC,county,Arkansas,Union,"Union, Arkansas, US",05139,33.16887091,-92.59746952,Micropolitan,39732.0,5843,14706.03,141,354.88
2021-11-11 06:21:50 UTC,county,Arkansas,Van Buren,"Van Buren, Arkansas, US",05141,35.58095779,-92.51295036,Non-core,16684.0,2231,13372.09,44,263.73
2021-11-11 06:21:50 UTC,county,Arkansas,Washington,"Washington, Arkansas, US",05143,35.976844,-94.21800746,Medium metro,228529.0,44939,19664.46,489,213.98
2021-11-11 06:21:50 UTC,county,Arkansas,White,"White, Arkansas, US",05145,35.25688493,-91.74908296,Micropolitan,78804.0,13479,17104.46,202,256.33
2021-11-11 06:21:50 UTC,county,Arkansas,Woodruff,"Woodruff, Arkansas, US",05147,35.18902527,-91.2439489,Non-core,6660.0,1122,16846.85,24,360.36
2021-11-11 06:21:50 UTC,county,Arkansas,Yell,"Yell, Arkansas, US",05149,35.00292371,-93.41171338,Micropolitan,21573.0,4708,21823.58,80,370.83
2021-11-11 06:21:50 UTC,county,California,Alameda,"Alameda, California, US",06001,37.64629437,-121.8929271,Large central metro,1643700.0,123023,7484.52,1466,89.19
2021-11-11 06:21:50 UTC,county,California,Alpine,"Alpine, California, US",06003,38.59678594,-119.8223594,Non-core,1146.0,105,9162.3,0,0.0
2021-11-11 06:21:50 UTC,county,California,Amador,"Amador, California, US",06005,38.44583082,-120.65696,Non-core,37829.0,5660,14962.07,66,174.47
2021-11-11 06:21:50 UTC,county,California,Butte,"Butte, California, US",06007,39.66727762,-121.6005252,Small metro,227075.0,24861,10948.37,291,128.15
2021-11-11 06:21:50 UTC,county,California,Calaveras,"Calaveras, California, US",06009,38.20537103,-120.552913,Non-core,45235.0,4233,9357.8,84,185.7
2021-11-11 06:21:50 UTC,county,California,Colusa,"Colusa, California, US",06011,39.17881957,-122.2331726,Non-core,21464.0,3165,14745.62,19,88.52
2021-11-11 06:21:50 UTC,county,California,Contra Costa,"Contra Costa, California, US",06013,37.91923498,-121.9289527,Large fringe metro,1133247.0,101997,9000.42,1028,90.71
2021-11-11 06:21:50 UTC,county,California,Del Norte,"Del Norte, California, US",06015,41.74228275,-123.8974063,Micropolitan,27424.0,3669,13378.79,42,153.15
2021-11-11 06:21:50 UTC,county,California,El Dorado,"El Dorado, California, US",06017,38.77965956,-120.5233166,Large fringe metro,186661.0,17797,9534.4,160,85.72
2021-11-11 06:21:50 UTC,county,California,Fresno,"Fresno, California, US",06019,36.75733899,-119.6466953,Medium metro,978130.0,152930,15634.94,2188,223.69
2021-11-11 06:21:50 UTC,county,California,Glenn,"Glenn, California, US",06021,39.59875897,-122.3938452,Non-core,27897.0,4505,16148.69,34,121.88
2021-11-11 06:21:50 UTC,county,California,Humboldt,"Humboldt, California, US",06023,40.69923009,-123.876044,Micropolitan,135768.0,9698,7143.07,117,86.18
2021-11-11 06:21:50 UTC,county,California,Imperial,"Imperial, California, US",06025,33.0393082,-115.3669042,Small metro,180216.0,37101,20586.96,766,425.05
2021-11-11 06:21:50 UTC,county,California,Inyo,"Inyo, California, US",06027,36.51112084,-117.4111978,Non-core,18085.0,2442,13502.9,42,232.24
2021-11-11 06:21:50 UTC,county,California,Kern,"Kern, California, US",06029,35.34329425,-118.7277796,Medium metro,883053.0,153048,17331.69,1730,195.91
2021-11-11 06:21:50 UTC,county,California,Kings,"Kings, California, US",06031,36.07409056,-119.8159973,Small metro,150075.0,34365,22898.55,344,229.22
2021-11-11 06:21:50 UTC,county,California,Lake,"Lake, California, US",06033,39.10124298,-122.7536244,Micropolitan,64148.0,6888,10737.67,106,165.24
2021-11-11 06:21:50 UTC,county,California,Lassen,"Lassen, California, US",06035,40.67311306,-120.5935099,Micropolitan,31185.0,7842,25146.71,52,166.75
2021-11-11 06:21:50 UTC,county,California,Los Angeles,"Los Angeles, California, US",06037,34.30828379,-118.2282411,Large central metro,10098052.0,1506305,14916.79,26796,265.36
2021-11-11 06:21:50 UTC,county,California,Madera,"Madera, California, US",06039,37.21513971,-119.7665589,Small metro,155013.0,25313,16329.6,293,189.02
2021-11-11 06:21:50 UTC,county,California,Marin,"Marin, California, US",06041,38.07122463,-122.7210631,Large fringe metro,260295.0,18086,6948.27,247,94.89
2021-11-11 06:21:50 UTC,county,California,Mariposa,"Mariposa, California, US",06043,37.57978556,-119.9073334,Non-core,17540.0,1485,8466.36,17,96.92
2021-11-11 06:21:50 UTC,county,California,Mendocino,"Mendocino, California, US",06045,39.4381191,-123.3911313,Micropolitan,87422.0,8144,9315.73,94,107.52
2021-11-11 06:21:50 UTC,county,California,Merced,"Merced, California, US",06047,37.18922369,-120.7209035,Medium metro,269075.0,44001,16352.69,613,227.82
2021-11-11 06:21:50 UTC,county,California,Modoc,"Modoc, California, US",06049,41.58965602,-120.7244817,Non-core,8938.0,725,8111.43,5,55.94
2021-11-11 06:21:50 UTC,county,California,Mono,"Mono, California, US",06051,37.93899289,-118.8872409,Non-core,14174.0,1757,12395.94,4,28.22
2021-11-11 06:21:50 UTC,county,California,Monterey,"Monterey, California, US",06053,36.21862405,-121.2413397,Medium metro,433212.0,51627,11917.26,609,140.58
2021-11-11 06:21:50 UTC,county,California,Napa,"Napa, California, US",06055,38.50735751,-122.332839,Small metro,140530.0,13166,9368.82,103,73.29
2021-11-11 06:21:50 UTC,county,California,Nevada,"Nevada, California, US",06057,39.30394768,-120.7627281,Micropolitan,99092.0,9605,9693.01,92,92.84
2021-11-11 06:21:50 UTC,county,California,Orange,"Orange, California, US",06059,33.70147516,-117.7645998,Large central metro,3164182.0,329541,10414.73,5634,178.06
2021-11-11 06:21:50 UTC,county,California,Placer,"Placer, California, US",06061,39.06167234,-120.7240569,Large fringe metro,380077.0,41040,10797.81,440,115.77
2021-11-11 06:21:50 UTC,county,California,Plumas,"Plumas, California, US",06063,40.00355989,-120.8395236,Non-core,18699.0,1843,9856.14,7,37.44
2021-11-11 06:21:50 UTC,county,California,Riverside,"Riverside, California, US",06065,33.74314981,-115.9933578,Large central metro,2383286.0,379716,15932.46,5160,216.51
2021-11-11 06:21:50 UTC,county,California,Sacramento,"Sacramento, California, US",06067,38.45106826,-121.3425374,Large central metro,1510023.0,164735,10909.44,2376,157.35
2021-11-11 06:21:50 UTC,county,California,San Benito,"San Benito, California, US",06069,36.60308176,-121.069975,Large fringe metro,59416.0,7649,12873.64,77,129.59
2021-11-11 06:21:50 UTC,county,California,San Bernardino,"San Bernardino, California, US",06071,34.84060306,-116.1774685,Large fringe metro,2135413.0,366339,17155.42,5839,273.44
2021-11-11 06:21:50 UTC,county,California,San Diego,"San Diego, California, US",06073,33.03484597,-116.7365326,Large central metro,3302833.0,397637,12039.27,4272,129.34
2021-11-11 06:21:50 UTC,county,California,San Francisco,"San Francisco, California, US",06075,37.75215114,-122.4385672,Large central metro,870044.0,55703,6402.32,666,76.55
2021-11-11 06:21:50 UTC,county,California,San Joaquin,"San Joaquin, California, US",06077,37.93433732,-121.2730061,Medium metro,732212.0,105333,14385.59,1794,245.01
2021-11-11 06:21:50 UTC,county,California,San Luis Obispo,"San Luis Obispo, California, US",06079,35.38822029,-120.4039028,Medium metro,281455.0,30752,10926.08,350,124.35
2021-11-11 06:21:50 UTC,county,California,San Mateo,"San Mateo, California, US",06081,37.4228808,-122.3275546,Large fringe metro,765935.0,55278,7217.06,626,81.73
2021-11-11 06:21:50 UTC,county,California,Santa Barbara,"Santa Barbara, California, US",06083,34.65329488,-120.0188492,Medium metro,443738.0,46274,10428.23,533,120.12
2021-11-11 06:21:50 UTC,county,California,Santa Clara,"Santa Clara, California, US",06085,37.23104908,-121.6970462,Large central metro,1922200.0,148680,7734.89,1901,98.9
2021-11-11 06:21:50 UTC,county,California,Santa Cruz,"Santa Cruz, California, US",06087,37.05580291,-122.0066524,Medium metro,273765.0,21546,7870.25,222,81.09
2021-11-11 06:21:50 UTC,county,California,Shasta,"Shasta, California, US",06089,40.76391419,-122.0396884,Small metro,179085.0,25283,14117.88,402,224.47
2021-11-11 06:21:50 UTC,county,California,Sierra,"Sierra, California, US",06091,39.57713498,-120.5200701,Non-core,2930.0,208,7098.98,0,0.0
2021-11-11 06:21:50 UTC,county,California,Siskiyou,"Siskiyou, California, US",06093,41.59198861,-122.5407434,Non-core,43540.0,4632,10638.49,52,119.43
2021-11-11 06:21:50 UTC,county,California,Solano,"Solano, California, US",06095,38.26827353,-121.9357113,Medium metro,438530.0,46871,10688.21,350,79.81
2021-11-11 06:21:50 UTC,county,California,Sonoma,"Sonoma, California, US",06097,38.52746429,-122.8862506,Medium metro,501317.0,42260,8429.8,410,81.78
2021-11-11 06:21:50 UTC,county,California,Stanislaus,"Stanislaus, California, US",06099,37.55862499,-120.9970722,Medium metro,539301.0,89331,16564.22,1380,255.89
2021-11-11 06:21:50 UTC,county,California,Sutter,"Sutter, California, US",06101,39.03417539,-121.6945899,Small metro,95872.0,14340,14957.44,180,187.75
2021-11-11 06:21:50 UTC,county,California,Tehama,"Tehama, California, US",06103,40.12570935,-122.2370171,Micropolitan,63373.0,10081,15907.41,125,197.24
2021-11-11 06:21:50 UTC,county,California,Trinity,"Trinity, California, US",06105,40.6491767,-123.114713,Non-core,12862.0,941,7316.13,17,132.17
2021-11-11 06:21:50 UTC,county,California,Tulare,"Tulare, California, US",06107,36.22026558,-118.8020203,Medium metro,460477.0,83971,18235.66,1024,222.38
2021-11-11 06:21:50 UTC,county,California,Tuolumne,"Tuolumne, California, US",06109,38.02644018,-119.9525093,Micropolitan,53932.0,7435,13785.88,90,166.88
2021-11-11 06:21:50 UTC,county,California,Ventura,"Ventura, California, US",06111,34.44465746,-119.0910613,Medium metro,848112.0,102627,12100.64,1182,139.37
2021-11-11 06:21:50 UTC,county,California,Yolo,"Yolo, California, US",06113,38.68278902,-121.9018288,Large fringe metro,214977.0,21093,9811.75,255,118.62
2021-11-11 06:21:50 UTC,county,California,Yuba,"Yuba, California, US",06115,39.26255932,-121.3535644,Small metro,75493.0,10517,13931.09,85,112.59
2021-11-11 06:21:50 UTC,county,Colorado,Adams,"Adams, Colorado, US",08001,39.87432092,-104.3362578,Large fringe metro,497115.0,79187,15929.31,871,175.21
2021-11-11 06:21:50 UTC,county,Colorado,Alamosa,"Alamosa, Colorado, US",08003,37.57250606,-105.7885451,Non-core,16444.0,2657,16157.87,44,267.57
2021-11-11 06:21:50 UTC,county,Colorado,Arapahoe,"Arapahoe, Colorado, US",08005,39.64977461,-104.3353617,Large fringe metro,636671.0,83385,13097.03,871,136.81
2021-11-11 06:21:50 UTC,county,Colorado,Archuleta,"Archuleta, Colorado, US",08007,37.19474156,-107.0476867,Non-core,12908.0,1646,12751.78,5,38.74
2021-11-11 06:21:50 UTC,county,Colorado,Baca,"Baca, Colorado, US",08009,37.31940883,-102.5603223,Non-core,3563.0,517,14510.24,5,140.33
2021-11-11 06:21:50 UTC,county,Colorado,Bent,"Bent, Colorado, US",08011,37.95474293,-103.0720195,Non-core,5809.0,1788,30779.82,29,499.23
2021-11-11 06:21:50 UTC,county,Colorado,Boulder,"Boulder, Colorado, US",08013,40.09313619,-105.3546767,Medium metro,321030.0,32492,10121.17,265,82.55
2021-11-11 06:21:50 UTC,county,Colorado,Broomfield,"Broomfield, Colorado, US",08014,39.95998787,-105.0566324,Large fringe metro,66120.0,7066,10686.63,84,127.04
2021-11-11 06:21:50 UTC,county,Colorado,Chaffee,"Chaffee, Colorado, US",08015,38.74745778,-106.1926573,Non-core,19164.0,2481,12946.15,33,172.2
2021-11-11 06:21:50 UTC,county,Colorado,Cheyenne,"Cheyenne, Colorado, US",08017,38.82777431,-102.6032558,Non-core,2039.0,203,9955.86,7,343.31
2021-11-11 06:21:50 UTC,county,Colorado,Clear Creek,"Clear Creek, Colorado, US",08019,39.68864463,-105.6463118,Large fringe metro,9379.0,815,8689.63,6,63.97
2021-11-11 06:21:50 UTC,county,Colorado,Conejos,"Conejos, Colorado, US",08021,37.201606,-106.1917488,Non-core,8142.0,1071,13154.02,37,454.43
2021-11-11 06:21:50 UTC,county,Colorado,Costilla,"Costilla, Colorado, US",08023,37.27732493,-105.4276548,Non-core,3687.0,406,11011.66,12,325.47
2021-11-11 06:21:50 UTC,county,Colorado,Crowley,"Crowley, Colorado, US",08025,38.32608609,-103.7844965,Non-core,5630.0,2428,43126.11,24,426.29
2021-11-11 06:21:50 UTC,county,Colorado,Custer,"Custer, Colorado, US",08027,38.10883162,-105.3683478,Non-core,4640.0,426,9181.03,9,193.97
2021-11-11 06:21:50 UTC,county,Colorado,Delta,"Delta, Colorado, US",08029,38.86246243,-107.8631342,Non-core,30346.0,4290,14136.95,91,299.87
2021-11-11 06:21:50 UTC,county,Colorado,Denver,"Denver, Colorado, US",08031,39.76018276,-104.8725695,Large central metro,693417.0,95667,13796.46,967,139.45
2021-11-11 06:21:50 UTC,county,Colorado,Dolores,"Dolores, Colorado, US",08033,37.75208676,-108.5211585,Non-core,1841.0,243,13199.35,5,271.59
2021-11-11 06:21:50 UTC,county,Colorado,Douglas,"Douglas, Colorado, US",08035,39.33133796,-104.930001,Large fringe metro,328614.0,42538,12944.67,307,93.42
2021-11-11 06:21:50 UTC,county,Colorado,Eagle,"Eagle, Colorado, US",08037,39.62754308,-106.6933637,Micropolitan,54357.0,8808,16203.98,32,58.87
2021-11-11 06:21:50 UTC,county,Colorado,El Paso,"El Paso, Colorado, US",08041,38.83240149,-104.5251411,Medium metro,688153.0,107376,15603.51,1175,170.75
2021-11-11 06:21:50 UTC,county,Colorado,Elbert,"Elbert, Colorado, US",08039,39.28656773,-104.1358721,Large fringe metro,25162.0,2851,11330.58,23,91.41
2021-11-11 06:21:50 UTC,county,Colorado,Fremont,"Fremont, Colorado, US",08043,38.47362326,-105.4399667,Micropolitan,47002.0,9247,19673.63,107,227.65
2021-11-11 06:21:50 UTC,county,Colorado,Garfield,"Garfield, Colorado, US",08045,39.59921777,-107.902708,Micropolitan,58538.0,8282,14148.07,65,111.04
2021-11-11 06:21:50 UTC,county,Colorado,Gilpin,"Gilpin, Colorado, US",08047,39.85646523,-105.5252597,Large fringe metro,5924.0,493,8322.08,3,50.64
2021-11-11 06:21:50 UTC,county,Colorado,Grand,"Grand, Colorado, US",08049,40.10603347,-106.1178042,Non-core,15066.0,2201,14609.05,16,106.2
2021-11-11 06:21:50 UTC,county,Colorado,Gunnison,"Gunnison, Colorado, US",08051,38.66611652,-107.0320729,Non-core,16537.0,1883,11386.59,12,72.56
2021-11-11 06:21:50 UTC,county,Colorado,Hinsdale,"Hinsdale, Colorado, US",08053,37.82247444,-107.3004345,Non-core,878.0,63,7175.4,0,0.0
2021-11-11 06:21:50 UTC,county,Colorado,Huerfano,"Huerfano, Colorado, US",08055,37.68473101,-104.9612585,Non-core,6583.0,732,11119.55,19,288.62
2021-11-11 06:21:50 UTC,county,Colorado,Jackson,"Jackson, Colorado, US",08057,40.6659387,-106.3408905,Non-core,1296.0,116,8950.62,0,0.0
2021-11-11 06:21:50 UTC,county,Colorado,Jefferson,"Jefferson, Colorado, US",08059,39.58635604,-105.2517692,Large fringe metro,570427.0,67092,11761.72,946,165.84
2021-11-11 06:21:50 UTC,county,Colorado,Kiowa,"Kiowa, Colorado, US",08061,38.43260896,-102.7392145,Non-core,1449.0,246,16977.23,4,276.05
2021-11-11 06:21:50 UTC,county,Colorado,Kit Carson,"Kit Carson, Colorado, US",08063,39.30497777,-102.6022199,Non-core,7635.0,1037,13582.19,20,261.95
2021-11-11 06:21:50 UTC,county,Colorado,La Plata,"La Plata, Colorado, US",08067,37.28632032,-107.8429014,Micropolitan,55101.0,6313,11457.14,55,99.82
2021-11-11 06:21:50 UTC,county,Colorado,Lake,"Lake, Colorado, US",08065,39.20278823,-106.3555697,Non-core,7585.0,1075,14172.71,1,13.18
2021-11-11 06:21:50 UTC,county,Colorado,Larimer,"Larimer, Colorado, US",08069,40.66671597,-105.4625784,Medium metro,338161.0,42016,12424.85,327,96.7
2021-11-11 06:21:50 UTC,county,Colorado,Las Animas,"Las Animas, Colorado, US",08071,37.3153406,-104.0376458,Non-core,14179.0,1983,13985.47,24,169.26
2021-11-11 06:21:50 UTC,county,Colorado,Lincoln,"Lincoln, Colorado, US",08073,38.98749519,-103.5136649,Non-core,5548.0,1335,24062.73,8,144.2
2021-11-11 06:21:50 UTC,county,Colorado,Logan,"Logan, Colorado, US",08075,40.7249637,-103.110817,Micropolitan,21689.0,4890,22545.99,87,401.12
2021-11-11 06:21:50 UTC,county,Colorado,Mesa,"Mesa, Colorado, US",08077,39.01787888,-108.469799,Small metro,149998.0,25804,17202.9,357,238.0
2021-11-11 06:21:50 UTC,county,Colorado,Mineral,"Mineral, Colorado, US",08079,37.66954283,-106.9281698,Non-core,823.0,138,16767.92,1,121.51
2021-11-11 06:21:50 UTC,county,Colorado,Moffat,"Moffat, Colorado, US",08081,40.61810999,-108.2070876,Micropolitan,13060.0,2059,15765.7,45,344.56
2021-11-11 06:21:50 UTC,county,Colorado,Montezuma,"Montezuma, Colorado, US",08083,37.33859579,-108.5958857,Non-core,25909.0,3570,13779.0,40,154.39
2021-11-11 06:21:50 UTC,county,Colorado,Montrose,"Montrose, Colorado, US",08085,38.40214114,-108.2639022,Micropolitan,41268.0,6101,14783.85,91,220.51
2021-11-11 06:21:50 UTC,county,Colorado,Morgan,"Morgan, Colorado, US",08087,40.2627981,-103.8093302,Micropolitan,28257.0,3664,12966.7,101,357.43
2021-11-11 06:21:50 UTC,county,Colorado,Otero,"Otero, Colorado, US",08089,37.9014485,-103.7173385,Non-core,18325.0,2882,15727.15,85,463.85
2021-11-11 06:21:50 UTC,county,Colorado,Ouray,"Ouray, Colorado, US",08091,38.14717457,-107.7675136,Non-core,4722.0,485,10271.07,5,105.89
2021-11-11 06:21:50 UTC,county,Colorado,Park,"Park, Colorado, US",08093,39.120926,-105.7182065,Large fringe metro,17392.0,1546,8889.14,10,57.5
2021-11-11 06:21:50 UTC,county,Colorado,Phillips,"Phillips, Colorado, US",08095,40.59414277,-102.3577703,Non-core,4318.0,547,12667.9,15,347.38
2021-11-11 06:21:50 UTC,county,Colorado,Pitkin,"Pitkin, Colorado, US",08097,39.21720112,-106.9310027,Micropolitan,17909.0,3197,17851.36,6,33.5
2021-11-11 06:21:50 UTC,county,Colorado,Prowers,"Prowers, Colorado, US",08099,37.95544985,-102.3926052,Non-core,12052.0,1797,14910.39,32,265.52
2021-11-11 06:21:50 UTC,county,Colorado,Pueblo,"Pueblo, Colorado, US",08101,38.17359144,-104.5127437,Small metro,164685.0,27434,16658.47,523,317.58
2021-11-11 06:21:50 UTC,county,Colorado,Rio Blanco,"Rio Blanco, Colorado, US",08103,39.97913541,-108.2179009,Non-core,6465.0,1127,17432.33,9,139.21
2021-11-11 06:21:50 UTC,county,Colorado,Rio Grande,"Rio Grande, Colorado, US",08105,37.5836865,-106.3847838,Non-core,11351.0,1629,14351.16,23,202.63
2021-11-11 06:21:50 UTC,county,Colorado,Routt,"Routt, Colorado, US",08107,40.48596505,-106.9905548,Micropolitan,24874.0,3633,14605.61,23,92.47
2021-11-11 06:21:50 UTC,county,Colorado,Saguache,"Saguache, Colorado, US",08109,38.08054629,-106.282466,Non-core,6468.0,735,11363.64,8,123.69
2021-11-11 06:21:50 UTC,county,Colorado,San Juan,"San Juan, Colorado, US",08111,37.76248981,-107.6763289,Non-core,544.0,104,19117.65,0,0.0
2021-11-11 06:21:50 UTC,county,Colorado,San Miguel,"San Miguel, Colorado, US",08113,38.00450883,-108.4020725,Non-core,7968.0,1212,15210.84,5,62.75
2021-11-11 06:21:50 UTC,county,Colorado,Sedgwick,"Sedgwick, Colorado, US",08115,40.87595412,-102.3519227,Non-core,2350.0,338,14382.98,5,212.77
2021-11-11 06:21:50 UTC,county,Colorado,Summit,"Summit, Colorado, US",08117,39.63803232,-106.1150762,Micropolitan,30429.0,4993,16408.69,11,36.15
2021-11-11 06:21:50 UTC,county,Colorado,Teller,"Teller, Colorado, US",08119,38.88133511,-105.1614893,Medium metro,24113.0,3069,12727.57,37,153.44
2021-11-11 06:21:50 UTC,county,Colorado,Washington,"Washington, Colorado, US",08121,39.97015535,-103.202587,Non-core,4840.0,712,14710.74,21,433.88
2021-11-11 06:21:50 UTC,county,Colorado,Weld,"Weld, Colorado, US",08123,40.55499405,-104.3929621,Medium metro,295123.0,49463,16760.13,484,164.0
2021-11-11 06:21:50 UTC,county,Colorado,Yuma,"Yuma, Colorado, US",08125,40.00346839,-102.4258673,Non-core,10069.0,1312,13030.09,18,178.77
2021-11-11 06:21:50 UTC,county,Connecticut,Fairfield,"Fairfield, Connecticut, US",09001,41.26809896,-73.3881171,Medium metro,944348.0,113222,11989.44,2311,244.72
2021-11-11 06:21:50 UTC,county,Connecticut,Hartford,"Hartford, Connecticut, US",09003,41.80283011,-72.73103891,Large central metro,894730.0,99831,11157.67,2600,290.59
2021-11-11 06:21:50 UTC,county,Connecticut,Litchfield,"Litchfield, Connecticut, US",09005,41.7937534,-73.2451475,Micropolitan,183031.0,17446,9531.72,331,180.84
2021-11-11 06:21:50 UTC,county,Connecticut,Middlesex,"Middlesex, Connecticut, US",09007,41.45949668,-72.53714864,Large fringe metro,163368.0,15124,9257.63,397,243.01
2021-11-11 06:21:50 UTC,county,Connecticut,New Haven,"New Haven, Connecticut, US",09009,41.4080325,-72.93620426,Medium metro,859339.0,106526,12396.27,2250,261.83
2021-11-11 06:21:50 UTC,county,Connecticut,New London,"New London, Connecticut, US",09011,41.48896435,-72.10430976,Medium metro,268881.0,28006,10415.76,496,184.47
2021-11-11 06:21:50 UTC,county,Connecticut,Tolland,"Tolland, Connecticut, US",09013,41.85853803,-72.3308481,Large fringe metro,151269.0,11528,7620.86,198,130.89
2021-11-11 06:21:50 UTC,county,Connecticut,Windham,"Windham, Connecticut, US",09015,41.82972709,-71.98182316,Medium metro,116538.0,13700,11755.82,221,189.64
2021-11-11 06:21:50 UTC,county,Delaware,Kent,"Kent, Delaware, US",10001,39.08646628,-75.56884914,Small metro,174822.0,26715,15281.26,454,259.69
2021-11-11 06:21:50 UTC,county,Delaware,New Castle,"New Castle, Delaware, US",10003,39.57992638,-75.64054974,Large fringe metro,555133.0,83253,14996.95,1032,185.9
2021-11-11 06:21:50 UTC,county,Delaware,Sussex,"Sussex, Delaware, US",10005,38.66143781,-75.39031349,Medium metro,219540.0,36056,16423.43,639,291.06
2021-11-11 06:21:50 UTC,county,District of Columbia,District of Columbia,"District of Columbia, District of Columbia ,US",11001,38.90417773,-77.01655992,Large central metro,684498.0,65159,9519.24,1193,174.29
2021-11-11 06:21:50 UTC,county,Florida,Alachua,"Alachua, Florida, US",12001,29.67866525,-82.35928158,Medium metro,263148.0,39960,15185.37,285,108.3
2021-11-11 06:21:50 UTC,county,Florida,Baker,"Baker, Florida, US",12003,30.33060121,-82.28467476,Large fringe metro,27785.0,6002,21601.58,62,223.14
2021-11-11 06:21:50 UTC,county,Florida,Bay,"Bay, Florida, US",12005,30.26548745,-85.62122584,Small metro,182482.0,32655,17894.92,394,215.91
2021-11-11 06:21:50 UTC,county,Florida,Bradford,"Bradford, Florida, US",12007,29.95079741,-82.16611613,Non-core,26979.0,5349,19826.53,58,214.98
2021-11-11 06:21:50 UTC,county,Florida,Brevard,"Brevard, Florida, US",12009,28.29409504,-80.73091022,Medium metro,576808.0,81637,14153.24,914,158.46
2021-11-11 06:21:50 UTC,county,Florida,Broward,"Broward, Florida, US",12011,26.15184651,-80.48725556,Large fringe metro,1909151.0,360798,18898.35,3079,161.28
2021-11-11 06:21:50 UTC,county,Florida,Calhoun,"Calhoun, Florida, US",12013,30.40666734,-85.19394153,Non-core,14444.0,3008,20825.26,45,311.55
2021-11-11 06:21:50 UTC,county,Florida,Charlotte,"Charlotte, Florida, US",12015,26.90131002,-81.92949121,Small metro,176954.0,23533,13298.94,437,246.96
2021-11-11 06:21:50 UTC,county,Florida,Citrus,"Citrus, Florida, US",12017,28.84804315,-82.47614748,Small metro,143087.0,20563,14370.98,463,323.58
2021-11-11 06:21:50 UTC,county,Florida,Clay,"Clay, Florida, US",12019,29.98319144,-81.85609986,Large fringe metro,207291.0,33911,16359.13,352,169.81
2021-11-11 06:21:50 UTC,county,Florida,Collier,"Collier, Florida, US",12021,26.11091986,-81.34687065,Medium metro,363922.0,58317,16024.59,551,151.41
2021-11-11 06:21:50 UTC,county,Florida,Columbia,"Columbia, Florida, US",12023,30.22509788,-82.62160164,Micropolitan,69105.0,14957,21643.88,170,246.0
2021-11-11 06:21:50 UTC,county,Florida,DeSoto,"DeSoto, Florida, US",12027,27.18677893,-81.80941373,Micropolitan,36399.0,6941,19069.21,97,266.49
2021-11-11 06:21:50 UTC,county,Florida,Dixie,"Dixie, Florida, US",12029,29.60631086,-83.15724673,Non-core,16437.0,2957,17989.9,24,146.01
2021-11-11 06:21:50 UTC,county,Florida,Duval,"Duval, Florida, US",12031,30.33225875,-81.66976468,Large central metro,924229.0,166387,18002.79,1483,160.46
2021-11-11 06:21:50 UTC,county,Florida,Escambia,"Escambia, Florida, US",12033,30.67652764,-87.37284571,Medium metro,311522.0,57456,18443.64,706,226.63
2021-11-11 06:21:50 UTC,county,Florida,Flagler,"Flagler, Florida, US",12035,29.45933576,-81.31508595,Medium metro,107139.0,14511,13544.09,114,106.4
2021-11-11 06:21:50 UTC,county,Florida,Franklin,"Franklin, Florida, US",12037,29.83791238,-84.82731662,Non-core,11736.0,2268,19325.15,20,170.42
2021-11-11 06:21:50 UTC,county,Florida,Gadsden,"Gadsden, Florida, US",12039,30.57796289,-84.61915825,Medium metro,46017.0,8676,18853.9,99,215.14
2021-11-11 06:21:50 UTC,county,Florida,Gilchrist,"Gilchrist, Florida, US",12041,29.72856978,-82.79880657,Medium metro,17615.0,3169,17990.35,44,249.79
2021-11-11 06:21:50 UTC,county,Florida,Glades,"Glades, Florida, US",12043,26.95635849,-81.18996211,Non-core,13363.0,1456,10895.76,19,142.18
2021-11-11 06:21:50 UTC,county,Florida,Gulf,"Gulf, Florida, US",12045,29.93543004,-85.2427099,Small metro,16055.0,3000,18685.77,45,280.29
2021-11-11 06:21:50 UTC,county,Florida,Hamilton,"Hamilton, Florida, US",12047,30.49673973,-82.94998918,Non-core,14269.0,2765,19377.67,25,175.2
2021-11-11 06:21:50 UTC,county,Florida,Hardee,"Hardee, Florida, US",12049,27.49293939,-81.80956574,Micropolitan,27228.0,6090,22366.68,45,165.27
2021-11-11 06:21:50 UTC,county,Florida,Hendry,"Hendry, Florida, US",12051,26.55386945,-81.16469006,Micropolitan,40127.0,8002,19941.69,87,216.81
2021-11-11 06:21:50 UTC,county,Florida,Hernando,"Hernando, Florida, US",12053,28.55364461,-82.42700204,Large fringe metro,182696.0,28707,15712.99,482,263.83
2021-11-11 06:21:50 UTC,county,Florida,Highlands,"Highlands, Florida, US",12055,27.34254618,-81.34071957,Small metro,102101.0,16069,15738.34,366,358.47
2021-11-11 06:21:50 UTC,county,Florida,Hillsborough,"Hillsborough, Florida, US",12057,27.9276559,-82.32013172,Large central metro,1378883.0,243577,17664.81,1832,132.86
2021-11-11 06:21:50 UTC,county,Florida,Holmes,"Holmes, Florida, US",12059,30.86747479,-85.81319222,Non-core,19430.0,3878,19958.83,49,252.19
2021-11-11 06:21:50 UTC,county,Florida,Indian River,"Indian River, Florida, US",12061,27.69308961,-80.60556721,Small metro,150984.0,22299,14769.11,306,202.67
2021-11-11 06:21:50 UTC,county,Florida,Jackson,"Jackson, Florida, US",12063,30.7954597,-85.21500423,Non-core,48472.0,10194,21030.7,158,325.96
2021-11-11 06:21:50 UTC,county,Florida,Jefferson,"Jefferson, Florida, US",12065,30.43669112,-83.89442308,Medium metro,14105.0,2504,17752.57,28,198.51
2021-11-11 06:21:50 UTC,county,Florida,Lafayette,"Lafayette, Florida, US",12067,29.98484137,-83.18166636,Non-core,8744.0,2219,25377.4,26,297.35
2021-11-11 06:21:50 UTC,county,Florida,Lake,"Lake, Florida, US",12069,28.76202069,-81.7125123,Large fringe metro,335362.0,55261,16478.01,663,197.7
2021-11-11 06:21:50 UTC,county,Florida,Lee,"Lee, Florida, US",12071,26.58410348,-81.88399313,Medium metro,718679.0,127606,17755.63,1009,140.4
2021-11-11 06:21:50 UTC,county,Florida,Leon,"Leon, Florida, US",12073,30.45955727,-84.27491114,Medium metro,288102.0,51738,17958.22,332,115.24
2021-11-11 06:21:50 UTC,county,Florida,Levy,"Levy, Florida, US",12075,29.31829741,-82.74007147,Non-core,39961.0,7012,17547.11,56,140.14
2021-11-11 06:21:50 UTC,county,Florida,Liberty,"Liberty, Florida, US",12077,30.23766008,-84.8829258,Non-core,8365.0,1831,21888.82,16,191.27
2021-11-11 06:21:50 UTC,county,Florida,Madison,"Madison, Florida, US",12079,30.44396917,-83.47398594,Non-core,18474.0,3617,19578.87,45,243.59
2021-11-11 06:21:50 UTC,county,Florida,Manatee,"Manatee, Florida, US",12081,27.47196942,-82.31831044,Medium metro,373853.0,65864,17617.62,689,184.3
2021-11-11 06:21:50 UTC,county,Florida,Marion,"Marion, Florida, US",12083,29.21227113,-82.05803627,Medium metro,348371.0,57087,16386.84,996,285.9
2021-11-11 06:21:50 UTC,county,Florida,Martin,"Martin, Florida, US",12085,27.0772071,-80.43109784,Medium metro,157581.0,20439,12970.47,335,212.59
2021-11-11 06:21:50 UTC,county,Florida,Miami-Dade,"Miami-Dade, Florida, US",12086,25.6112362,-80.55170587,Large central metro,2715516.0,680807,25071.0,6472,238.33
2021-11-11 06:21:50 UTC,county,Florida,Monroe,"Monroe, Florida, US",12087,25.20904673,-81.07812416,Micropolitan,76325.0,10997,14408.12,52,68.13
2021-11-11 06:21:50 UTC,county,Florida,Nassau,"Nassau, Florida, US",12089,30.61037141,-81.80297522,Large fringe metro,80578.0,15544,19290.63,127,157.61
2021-11-11 06:21:50 UTC,county,Florida,Okaloosa,"Okaloosa, Florida, US",12091,30.69143028,-86.59267105,Small metro,200737.0,34767,17319.68,367,182.83
2021-11-11 06:21:50 UTC,county,Florida,Okeechobee,"Okeechobee, Florida, US",12093,27.3863362,-80.88944347,Micropolitan,40572.0,7444,18347.63,89,219.36
2021-11-11 06:21:50 UTC,county,Florida,Orange,"Orange, Florida, US",12095,28.51367621,-81.31799498,Large central metro,1321194.0,231067,17489.26,1310,99.15
2021-11-11 06:21:50 UTC,county,Florida,Osceola,"Osceola, Florida, US",12097,28.06312234,-81.14882926,Large fringe metro,338619.0,72617,21445.05,529,156.22
2021-11-11 06:21:50 UTC,county,Florida,Palm Beach,"Palm Beach, Florida, US",12099,26.64676272,-80.46536002,Large fringe metro,1446277.0,228398,15792.13,2883,199.34
2021-11-11 06:21:50 UTC,county,Florida,Pasco,"Pasco, Florida, US",12101,28.30810945,-82.40227529,Large fringe metro,510593.0,79725,15614.2,802,157.07
2021-11-11 06:21:50 UTC,county,Florida,Pinellas,"Pinellas, Florida, US",12103,27.93130349,-82.72239666,Large central metro,957875.0,136755,14276.92,1671,174.45
2021-11-11 06:21:50 UTC,county,Florida,Polk,"Polk, Florida, US",12105,27.95027105,-81.69732947,Medium metro,668671.0,129243,19328.34,1387,207.43
2021-11-11 06:21:50 UTC,county,Florida,Putnam,"Putnam, Florida, US",12107,29.60779729,-81.74230285,Micropolitan,72766.0,12825,17624.99,160,219.88
2021-11-11 06:21:50 UTC,county,Florida,Santa Rosa,"Santa Rosa, Florida, US",12113,30.6934145,-87.02458128,Medium metro,170442.0,32721,19197.73,291,170.73
2021-11-11 06:21:50 UTC,county,Florida,Sarasota,"Sarasota, Florida, US",12115,27.18546175,-82.33174248,Medium metro,412144.0,56984,13826.24,844,204.78
2021-11-11 06:21:50 UTC,county,Florida,Seminole,"Seminole, Florida, US",12117,28.7158582,-81.24060348,Large fringe metro,455086.0,62599,13755.42,516,113.39
2021-11-11 06:21:50 UTC,county,Florida,St. Johns,"St. Johns, Florida, US",12109,29.90096506,-81.43589967,Large fringe metro,235503.0,41125,17462.62,221,93.84
2021-11-11 06:21:50 UTC,county,Florida,St. Lucie,"St. Lucie, Florida, US",12111,27.37763908,-80.47106649,Medium metro,305591.0,48079,15733.12,657,214.99
2021-11-11 06:21:50 UTC,county,Florida,Sumter,"Sumter, Florida, US",12119,28.70181754,-82.0794267,Small metro,120999.0,14713,12159.6,284,234.71
2021-11-11 06:21:50 UTC,county,Florida,Suwannee,"Suwannee, Florida, US",12121,30.19746066,-82.9909967,Non-core,43924.0,9250,21059.1,140,318.73
2021-11-11 06:21:50 UTC,county,Florida,Taylor,"Taylor, Florida, US",12123,30.04848048,-83.60445406,Non-core,22098.0,4601,20820.89,48,217.21
2021-11-11 06:21:50 UTC,county,Florida,Union,"Union, Florida, US",12125,30.04412971,-82.37497443,Non-core,15239.0,3068,20132.55,74,485.6
2021-11-11 06:21:50 UTC,county,Florida,Volusia,"Volusia, Florida, US",12127,29.05858895,-81.18263252,Medium metro,527634.0,76868,14568.43,846,160.34
2021-11-11 06:21:50 UTC,county,Florida,Wakulla,"Wakulla, Florida, US",12129,30.16548905,-84.39895211,Medium metro,31877.0,6444,20215.2,56,175.68
2021-11-11 06:21:50 UTC,county,Florida,Walton,"Walton, Florida, US",12131,30.64204028,-86.16935664,Small metro,65858.0,12864,19532.93,89,135.14
2021-11-11 06:21:50 UTC,county,Florida,Washington,"Washington, Florida, US",12133,30.61359259,-85.66002461,Non-core,24566.0,4574,18619.23,52,211.67
2021-11-11 06:21:50 UTC,county,Georgia,Appling,"Appling, Georgia, US",13001,31.74847232,-82.28909114,Non-core,18454.0,3519,19069.04,105,568.98
2021-11-11 06:21:50 UTC,county,Georgia,Atkinson,"Atkinson, Georgia, US",13003,31.29633502,-82.87545866,Non-core,8265.0,1578,19092.56,37,447.67
2021-11-11 06:21:50 UTC,county,Georgia,Bacon,"Bacon, Georgia, US",13005,31.55456473,-82.45936528,Non-core,11228.0,2620,23334.52,62,552.19
2021-11-11 06:21:50 UTC,county,Georgia,Baker,"Baker, Georgia, US",13007,31.32669878,-84.44218806,Small metro,3189.0,368,11539.67,14,439.01
2021-11-11 06:21:50 UTC,county,Georgia,Baldwin,"Baldwin, Georgia, US",13009,33.06882326,-83.24701748,Micropolitan,45286.0,6715,14827.98,193,426.18
2021-11-11 06:21:50 UTC,county,Georgia,Banks,"Banks, Georgia, US",13011,34.35607081,-83.49644388,Non-core,18510.0,2750,14856.83,64,345.76
2021-11-11 06:21:50 UTC,county,Georgia,Barrow,"Barrow, Georgia, US",13013,33.99148694,-83.71436292,Large fringe metro,76887.0,14828,19285.44,199,258.82
2021-11-11 06:21:50 UTC,county,Georgia,Bartow,"Bartow, Georgia, US",13015,34.23732119,-84.83887523,Large fringe metro,103620.0,20559,19840.76,354,341.63
2021-11-11 06:21:50 UTC,county,Georgia,Ben Hill,"Ben Hill, Georgia, US",13017,31.76095874,-83.22145359,Micropolitan,17154.0,3229,18823.6,104,606.27
2021-11-11 06:21:50 UTC,county,Georgia,Berrien,"Berrien, Georgia, US",13019,31.27590016,-83.2252992,Non-core,19025.0,3490,18344.28,70,367.94
2021-11-11 06:21:50 UTC,county,Georgia,Bibb,"Bibb, Georgia, US",13021,32.80904227,-83.70489165,Small metro,153490.0,25729,16762.66,640,416.97
2021-11-11 06:21:50 UTC,county,Georgia,Bleckley,"Bleckley, Georgia, US",13023,32.43829035,-83.33035166,Non-core,12775.0,2312,18097.85,80,626.22
2021-11-11 06:21:50 UTC,county,Georgia,Brantley,"Brantley, Georgia, US",13025,31.19576557,-81.97743999,Small metro,18561.0,3132,16874.09,87,468.72
2021-11-11 06:21:50 UTC,county,Georgia,Brooks,"Brooks, Georgia, US",13027,30.83922642,-83.58303423,Small metro,15622.0,2421,15497.38,71,454.49
2021-11-11 06:21:50 UTC,county,Georgia,Bryan,"Bryan, Georgia, US",13029,32.00979311,-81.44002948,Medium metro,35885.0,6305,17570.02,72,200.64
2021-11-11 06:21:50 UTC,county,Georgia,Bulloch,"Bulloch, Georgia, US",13031,32.39577406,-81.74811421,Micropolitan,74782.0,11180,14950.12,205,274.13
2021-11-11 06:21:50 UTC,county,Georgia,Burke,"Burke, Georgia, US",13033,33.05917989,-81.99928721,Medium metro,22550.0,3742,16594.24,84,372.51
2021-11-11 06:21:50 UTC,county,Georgia,Butts,"Butts, Georgia, US",13035,33.2830945,-83.9543504,Large fringe metro,23750.0,4713,19844.21,123,517.89
2021-11-11 06:21:50 UTC,county,Georgia,Calhoun,"Calhoun, Georgia, US",13037,31.53169785,-84.62725131,Non-core,6428.0,845,13145.61,21,326.7
2021-11-11 06:21:50 UTC,county,Georgia,Camden,"Camden, Georgia, US",13039,30.92951916,-81.66601818,Micropolitan,52714.0,8015,15204.69,96,182.11
2021-11-11 06:21:50 UTC,county,Georgia,Candler,"Candler, Georgia, US",13043,32.40209349,-82.07702563,Non-core,10827.0,1560,14408.42,87,803.55
2021-11-11 06:21:50 UTC,county,Georgia,Carroll,"Carroll, Georgia, US",13045,33.58138199,-85.07976677,Large fringe metro,116022.0,16450,14178.35,325,280.12
2021-11-11 06:21:50 UTC,county,Georgia,Catoosa,"Catoosa, Georgia, US",13047,34.89872298,-85.13757014,Medium metro,66299.0,9634,14531.14,114,171.95
2021-11-11 06:21:50 UTC,county,Georgia,Charlton,"Charlton, Georgia, US",13049,30.78371028,-82.13951596,Non-core,12983.0,2263,17430.49,55,423.63
2021-11-11 06:21:50 UTC,county,Georgia,Chatham,"Chatham, Georgia, US",13051,32.00043026,-81.12489526,Medium metro,287049.0,38784,13511.28,703,244.91
2021-11-11 06:21:50 UTC,county,Georgia,Chattahoochee,"Chattahoochee, Georgia, US",13053,32.34341231,-84.78809239,Medium metro,10767.0,5978,55521.5,20,185.75
2021-11-11 06:21:50 UTC,county,Georgia,Chattooga,"Chattooga, Georgia, US",13055,34.47197698,-85.34535662,Micropolitan,24817.0,4591,18499.42,105,423.1
2021-11-11 06:21:50 UTC,county,Georgia,Cherokee,"Cherokee, Georgia, US",13057,34.24393976,-84.47431861,Large fringe metro,241910.0,44038,18204.29,464,191.81
2021-11-11 06:21:50 UTC,county,Georgia,Clarke,"Clarke, Georgia, US",13059,33.95436462,-83.37124007,Small metro,124602.0,20169,16186.74,183,146.87
2021-11-11 06:21:50 UTC,county,Georgia,Clay,"Clay, Georgia, US",13061,31.62221166,-84.97713865,Non-core,3001.0,312,10396.53,4,133.29
2021-11-11 06:21:50 UTC,county,Georgia,Clayton,"Clayton, Georgia, US",13063,33.54187245,-84.35594188,Large fringe metro,278666.0,39611,14214.51,744,266.99
2021-11-11 06:21:50 UTC,county,Georgia,Clinch,"Clinch, Georgia, US",13065,30.91395822,-82.70432472,Non-core,6743.0,1493,22141.48,36,533.89
2021-11-11 06:21:50 UTC,county,Georgia,Cobb,"Cobb, Georgia, US",13067,33.94243204,-84.5761255,Large fringe metro,745057.0,110102,14777.66,1404,188.44
2021-11-11 06:21:50 UTC,county,Georgia,Coffee,"Coffee, Georgia, US",13069,31.54892966,-82.8549206,Micropolitan,42961.0,7892,18370.15,231,537.7
2021-11-11 06:21:50 UTC,county,Georgia,Colquitt,"Colquitt, Georgia, US",13071,31.18810588,-83.7677946,Micropolitan,45606.0,7519,16486.87,191,418.8
2021-11-11 06:21:50 UTC,county,Georgia,Columbia,"Columbia, Georgia, US",13073,33.54534185,-82.263524,Medium metro,147295.0,25000,16972.74,305,207.07
2021-11-11 06:21:50 UTC,county,Georgia,Cook,"Cook, Georgia, US",13075,31.16068491,-83.42947229,Non-core,17184.0,3613,21025.37,63,366.62
2021-11-11 06:21:50 UTC,county,Georgia,Coweta,"Coweta, Georgia, US",13077,33.35334302,-84.76129976,Large fringe metro,140516.0,20955,14912.89,374,266.16
2021-11-11 06:21:50 UTC,county,Georgia,Crawford,"Crawford, Georgia, US",13079,32.71391813,-83.98061238,Small metro,12344.0,1138,9219.05,43,348.35
2021-11-11 06:21:50 UTC,county,Georgia,Crisp,"Crisp, Georgia, US",13081,31.92289565,-83.76811843,Micropolitan,22846.0,3146,13770.46,111,485.86
2021-11-11 06:21:50 UTC,county,Georgia,Dade,"Dade, Georgia, US",13083,34.8549167,-85.50490424,Medium metro,16227.0,2172,13385.1,21,129.41
2021-11-11 06:21:50 UTC,county,Georgia,Dawson,"Dawson, Georgia, US",13085,34.44244079,-84.16964071,Large fringe metro,23861.0,4666,19554.92,75,314.32
2021-11-11 06:21:50 UTC,county,Georgia,DeKalb,"DeKalb, Georgia, US",13089,33.76944049,-84.22396017,Large fringe metro,743187.0,92224,12409.26,1344,180.84
2021-11-11 06:21:50 UTC,county,Georgia,Decatur,"Decatur, Georgia, US",13087,30.87967778,-84.57619536,Micropolitan,26833.0,4769,17772.89,101,376.4
2021-11-11 06:21:50 UTC,county,Georgia,Dodge,"Dodge, Georgia, US",13091,32.17265114,-83.16948926,Non-core,20919.0,3604,17228.36,127,607.1
2021-11-11 06:21:50 UTC,county,Georgia,Dooly,"Dooly, Georgia, US",13093,32.15630737,-83.79746561,Non-core,13905.0,1648,11851.85,60,431.5
2021-11-11 06:21:50 UTC,county,Georgia,Dougherty,"Dougherty, Georgia, US",13095,31.53328528,-84.21722377,Small metro,91049.0,12474,13700.32,417,458.0
2021-11-11 06:21:50 UTC,county,Georgia,Douglas,"Douglas, Georgia, US",13097,33.70291126,-84.77026156,Large fringe metro,141840.0,22404,15795.26,300,211.51
2021-11-11 06:21:50 UTC,county,Georgia,Early,"Early, Georgia, US",13099,31.32155345,-84.90255207,Non-core,10348.0,1880,18167.76,57,550.83
2021-11-11 06:21:50 UTC,county,Georgia,Echols,"Echols, Georgia, US",13101,30.71101099,-82.89687287,Small metro,3994.0,724,18127.19,11,275.41
2021-11-11 06:21:50 UTC,county,Georgia,Effingham,"Effingham, Georgia, US",13103,32.36616021,-81.34280942,Medium metro,58689.0,8856,15089.71,170,289.66
2021-11-11 06:21:50 UTC,county,Georgia,Elbert,"Elbert, Georgia, US",13105,34.11302332,-82.83936148,Non-core,19212.0,3324,17301.69,88,458.05
2021-11-11 06:21:50 UTC,county,Georgia,Emanuel,"Emanuel, Georgia, US",13107,32.59221302,-82.30239915,Non-core,22499.0,4443,19747.54,133,591.14
2021-11-11 06:21:50 UTC,county,Georgia,Evans,"Evans, Georgia, US",13109,32.15328841,-81.8870105,Non-core,10727.0,1621,15111.4,54,503.4
2021-11-11 06:21:50 UTC,county,Georgia,Fannin,"Fannin, Georgia, US",13111,34.86430205,-84.316964,Non-core,24925.0,3792,15213.64,108,433.3
2021-11-11 06:21:50 UTC,county,Georgia,Fayette,"Fayette, Georgia, US",13113,33.41357794,-84.49089434,Large fringe metro,111369.0,13277,11921.63,241,216.4
2021-11-11 06:21:50 UTC,county,Georgia,Floyd,"Floyd, Georgia, US",13115,34.26268279,-85.21577392,Small metro,96824.0,18413,19016.98,382,394.53
2021-11-11 06:21:50 UTC,county,Georgia,Forsyth,"Forsyth, Georgia, US",13117,34.22604035,-84.1231513,Large fringe metro,219880.0,34188,15548.48,280,127.34
2021-11-11 06:21:50 UTC,county,Georgia,Franklin,"Franklin, Georgia, US",13119,34.37525597,-83.23159927,Non-core,22514.0,3947,17531.31,84,373.1
2021-11-11 06:21:50 UTC,county,Georgia,Fulton,"Fulton, Georgia, US",13121,33.79216944,-84.46319413,Large central metro,1021902.0,132778,12993.22,1805,176.63
2021-11-11 06:21:50 UTC,county,Georgia,Gilmer,"Gilmer, Georgia, US",13123,34.69316688,-84.45802506,Non-core,29922.0,4720,15774.35,136,454.52
2021-11-11 06:21:50 UTC,county,Georgia,Glascock,"Glascock, Georgia, US",13125,33.22879932,-82.61297636,Non-core,3009.0,413,13725.49,20,664.67
2021-11-11 06:21:50 UTC,county,Georgia,Glynn,"Glynn, Georgia, US",13127,31.23279254,-81.53811412,Small metro,83974.0,15359,18290.19,337,401.31
2021-11-11 06:21:50 UTC,county,Georgia,Gordon,"Gordon, Georgia, US",13129,34.50487351,-84.87296253,Micropolitan,56790.0,11350,19985.91,200,352.17
2021-11-11 06:21:50 UTC,county,Georgia,Grady,"Grady, Georgia, US",13131,30.87454847,-84.23418364,Non-core,24926.0,3637,14591.19,90,361.07
2021-11-11 06:21:50 UTC,county,Georgia,Greene,"Greene, Georgia, US",13133,33.5769205,-83.17139104,Non-core,16976.0,2725,16052.07,73,430.02
2021-11-11 06:21:50 UTC,county,Georgia,Gwinnett,"Gwinnett, Georgia, US",13135,33.96044201,-84.02137802,Large fringe metro,902298.0,134161,14868.81,1488,164.91
2021-11-11 06:21:50 UTC,county,Georgia,Habersham,"Habersham, Georgia, US",13137,34.63331566,-83.53094677,Micropolitan,44289.0,7428,16771.66,208,469.64
2021-11-11 06:21:50 UTC,county,Georgia,Hall,"Hall, Georgia, US",13139,34.32207823,-83.81896936,Small metro,195961.0,38357,19573.79,655,334.25
2021-11-11 06:21:50 UTC,county,Georgia,Hancock,"Hancock, Georgia, US",13141,33.2721566,-82.99766919,Micropolitan,8535.0,1124,13169.3,82,960.75
2021-11-11 06:21:50 UTC,county,Georgia,Haralson,"Haralson, Georgia, US",13143,33.79602175,-85.21005667,Large fringe metro,28956.0,3807,13147.53,121,417.88
2021-11-11 06:21:50 UTC,county,Georgia,Harris,"Harris, Georgia, US",13145,32.73709786,-84.90538572,Medium metro,33590.0,3808,11336.71,92,273.89
2021-11-11 06:21:50 UTC,county,Georgia,Hart,"Hart, Georgia, US",13147,34.34626973,-82.96567682,Non-core,25631.0,3538,13803.6,71,277.01
2021-11-11 06:21:50 UTC,county,Georgia,Heard,"Heard, Georgia, US",13149,33.29686567,-85.12886832,Large fringe metro,11677.0,1476,12640.23,41,351.12
2021-11-11 06:21:50 UTC,county,Georgia,Henry,"Henry, Georgia, US",13151,33.4533428,-84.1481466,Large fringe metro,221307.0,38385,17344.68,509,230.0
2021-11-11 06:21:50 UTC,county,Georgia,Houston,"Houston, Georgia, US",13153,32.45802497,-83.66879087,Small metro,151682.0,25245,16643.37,394,259.75
2021-11-11 06:21:50 UTC,county,Georgia,Irwin,"Irwin, Georgia, US",13155,31.60213036,-83.27501387,Non-core,9268.0,1437,15504.96,39,420.8
2021-11-11 06:21:50 UTC,county,Georgia,Jackson,"Jackson, Georgia, US",13157,34.13794553,-83.56814788,Micropolitan,65755.0,14814,22529.09,217,330.01
2021-11-11 06:21:50 UTC,county,Georgia,Jasper,"Jasper, Georgia, US",13159,33.31535543,-83.68844964,Large fringe metro,13784.0,2155,15634.07,60,435.29
2021-11-11 06:21:50 UTC,county,Georgia,Jeff Davis,"Jeff Davis, Georgia, US",13161,31.80405727,-82.6372487,Non-core,14991.0,2959,19738.51,60,400.24
2021-11-11 06:21:50 UTC,county,Georgia,Jefferson,"Jefferson, Georgia, US",13163,33.05867328,-82.41609057,Non-core,15772.0,2692,17068.22,87,551.61
2021-11-11 06:21:50 UTC,county,Georgia,Jenkins,"Jenkins, Georgia, US",13165,32.79248718,-81.96040187,Non-core,8827.0,1186,13436.05,58,657.07
2021-11-11 06:21:50 UTC,county,Georgia,Johnson,"Johnson, Georgia, US",13167,32.70211082,-82.66166794,Micropolitan,9730.0,1557,16002.06,63,647.48
2021-11-11 06:21:50 UTC,county,Georgia,Jones,"Jones, Georgia, US",13169,33.02512137,-83.56019163,Small metro,28548.0,3495,12242.54,94,329.27
2021-11-11 06:21:50 UTC,county,Georgia,Lamar,"Lamar, Georgia, US",13171,33.07841647,-84.14263877,Large fringe metro,18513.0,3442,18592.34,95,513.15
2021-11-11 06:21:50 UTC,county,Georgia,Lanier,"Lanier, Georgia, US",13173,31.0382857,-83.06472457,Small metro,10366.0,1470,14180.98,17,164.0
2021-11-11 06:21:50 UTC,county,Georgia,Laurens,"Laurens, Georgia, US",13175,32.46325233,-82.92221316,Micropolitan,47418.0,9132,19258.51,245,516.68
2021-11-11 06:21:50 UTC,county,Georgia,Lee,"Lee, Georgia, US",13177,31.7793306,-84.14324253,Small metro,29348.0,4736,16137.39,80,272.59
2021-11-11 06:21:50 UTC,county,Georgia,Liberty,"Liberty, Georgia, US",13179,31.82588896,-81.49251135,Small metro,62108.0,7566,12182.01,124,199.65
2021-11-11 06:21:50 UTC,county,Georgia,Lincoln,"Lincoln, Georgia, US",13181,33.79201475,-82.45024131,Medium metro,7799.0,1196,15335.3,33,423.13
2021-11-11 06:21:50 UTC,county,Georgia,Long,"Long, Georgia, US",13183,31.75218791,-81.74952375,Small metro,18156.0,1762,9704.78,26,143.2
2021-11-11 06:21:50 UTC,county,Georgia,Lowndes,"Lowndes, Georgia, US",13185,30.83568832,-83.27056716,Small metro,114582.0,21359,18640.8,317,276.66
2021-11-11 06:21:50 UTC,county,Georgia,Lumpkin,"Lumpkin, Georgia, US",13187,34.57286511,-84.00425681,Non-core,31951.0,4786,14979.19,107,334.89
2021-11-11 06:21:50 UTC,county,Georgia,Macon,"Macon, Georgia, US",13193,32.35207048,-84.04234127,Non-core,13480.0,1335,9903.56,44,326.41
2021-11-11 06:21:50 UTC,county,Georgia,Madison,"Madison, Georgia, US",13195,34.12920917,-83.21218732,Small metro,28900.0,4993,17276.82,79,273.36
2021-11-11 06:21:50 UTC,county,Georgia,Marion,"Marion, Georgia, US",13197,32.3483402,-84.52733571,Medium metro,8484.0,974,11480.43,39,459.69
2021-11-11 06:21:50 UTC,county,Georgia,McDuffie,"McDuffie, Georgia, US",13189,33.47851918,-82.48252774,Medium metro,21498.0,3539,16462.0,76,353.52
2021-11-11 06:21:50 UTC,county,Georgia,McIntosh,"McIntosh, Georgia, US",13191,31.49683595,-81.40163426,Small metro,14120.0,1709,12103.4,31,219.55
2021-11-11 06:21:50 UTC,county,Georgia,Meriwether,"Meriwether, Georgia, US",13199,33.04163534,-84.68859732,Large fringe metro,21113.0,2978,14105.05,112,530.48
2021-11-11 06:21:50 UTC,county,Georgia,Miller,"Miller, Georgia, US",13201,31.16568912,-84.73151117,Non-core,5836.0,1231,21093.21,22,376.97
2021-11-11 06:21:50 UTC,county,Georgia,Mitchell,"Mitchell, Georgia, US",13205,31.22483255,-84.19381821,Non-core,22432.0,3370,15023.18,100,445.79
2021-11-11 06:21:50 UTC,county,Georgia,Monroe,"Monroe, Georgia, US",13207,33.014289,-83.92097166,Small metro,27010.0,4226,15646.06,149,551.65
2021-11-11 06:21:50 UTC,county,Georgia,Montgomery,"Montgomery, Georgia, US",13209,32.17201038,-82.53527476,Micropolitan,9036.0,1521,16832.67,41,453.74
2021-11-11 06:21:50 UTC,county,Georgia,Morgan,"Morgan, Georgia, US",13211,33.59232073,-83.49129491,Large fringe metro,18235.0,3272,17943.52,44,241.29
2021-11-11 06:21:50 UTC,county,Georgia,Murray,"Murray, Georgia, US",13213,34.78897608,-84.74993177,Small metro,39557.0,7587,19179.92,140,353.92
2021-11-11 06:21:50 UTC,county,Georgia,Muscogee,"Muscogee, Georgia, US",13215,32.50931999,-84.87142262,Medium metro,196670.0,24278,12344.54,648,329.49
2021-11-11 06:21:50 UTC,county,Georgia,Newton,"Newton, Georgia, US",13217,33.55514538,-83.8454714,Large fringe metro,106497.0,16420,15418.27,353,331.46
2021-11-11 06:21:50 UTC,county,Georgia,Oconee,"Oconee, Georgia, US",13219,33.83749973,-83.43679568,Small metro,37017.0,5746,15522.6,81,218.82
2021-11-11 06:21:50 UTC,county,Georgia,Oglethorpe,"Oglethorpe, Georgia, US",13221,33.8786296,-83.08278123,Small metro,14784.0,2214,14975.65,43,290.85
2021-11-11 06:21:50 UTC,county,Georgia,Paulding,"Paulding, Georgia, US",13223,33.91969522,-84.86848792,Large fringe metro,155840.0,25298,16233.32,341,218.81
2021-11-11 06:21:50 UTC,county,Georgia,Peach,"Peach, Georgia, US",13225,32.56934316,-83.82937,Small metro,26966.0,4120,15278.5,106,393.09
2021-11-11 06:21:50 UTC,county,Georgia,Pickens,"Pickens, Georgia, US",13227,34.46589159,-84.46406611,Large fringe metro,30832.0,5589,18127.27,119,385.96
2021-11-11 06:21:50 UTC,county,Georgia,Pierce,"Pierce, Georgia, US",13229,31.35928155,-82.21598442,Micropolitan,19164.0,4289,22380.51,104,542.68
2021-11-11 06:21:50 UTC,county,Georgia,Pike,"Pike, Georgia, US",13231,33.09310242,-84.38790389,Large fringe metro,18082.0,3833,21197.88,70,387.13
2021-11-11 06:21:50 UTC,county,Georgia,Polk,"Polk, Georgia, US",13233,34.00267074,-85.18677781,Micropolitan,41621.0,8525,20482.45,159,382.02
2021-11-11 06:21:50 UTC,county,Georgia,Pulaski,"Pulaski, Georgia, US",13235,32.23334561,-83.4754996,Small metro,11295.0,1517,13430.72,61,540.06
2021-11-11 06:21:50 UTC,county,Georgia,Putnam,"Putnam, Georgia, US",13237,33.32056115,-83.37552891,Non-core,21503.0,3245,15090.92,83,385.99
2021-11-11 06:21:50 UTC,county,Georgia,Quitman,"Quitman, Georgia, US",13239,31.86728114,-85.01773177,Non-core,2276.0,257,11291.74,4,175.75
2021-11-11 06:21:50 UTC,county,Georgia,Rabun,"Rabun, Georgia, US",13241,34.88389445,-83.40304637,Non-core,16457.0,2596,15774.44,68,413.2
2021-11-11 06:21:50 UTC,county,Georgia,Randolph,"Randolph, Georgia, US",13243,31.76622818,-84.75732369,Non-core,7087.0,1001,14124.45,43,606.74
2021-11-11 06:21:50 UTC,county,Georgia,Richmond,"Richmond, Georgia, US",13245,33.35777107,-82.07026432,Medium metro,201463.0,35212,17478.15,715,354.9
2021-11-11 06:21:50 UTC,county,Georgia,Rockdale,"Rockdale, Georgia, US",13247,33.65145002,-84.02202167,Large fringe metro,89011.0,11499,12918.63,241,270.75
2021-11-11 06:21:50 UTC,county,Georgia,Schley,"Schley, Georgia, US",13249,32.2654021,-84.31258912,Micropolitan,5211.0,683,13106.89,7,134.33
2021-11-11 06:21:50 UTC,county,Georgia,Screven,"Screven, Georgia, US",13251,32.74976524,-81.60779441,Non-core,13990.0,1793,12816.3,62,443.17
2021-11-11 06:21:50 UTC,county,Georgia,Seminole,"Seminole, Georgia, US",13253,30.93464824,-84.86823924,Non-core,8437.0,1520,18015.88,25,296.31
2021-11-11 06:21:50 UTC,county,Georgia,Spalding,"Spalding, Georgia, US",13255,33.26310031,-84.28013991,Large fringe metro,64719.0,10424,16106.55,316,488.26
2021-11-11 06:21:50 UTC,county,Georgia,Stephens,"Stephens, Georgia, US",13257,34.55151201,-83.29405315,Micropolitan,25676.0,4796,18678.92,112,436.21
2021-11-11 06:21:50 UTC,county,Georgia,Stewart,"Stewart, Georgia, US",13259,32.07996777,-84.83208037,Non-core,6042.0,1521,25173.78,28,463.42
2021-11-11 06:21:50 UTC,county,Georgia,Sumter,"Sumter, Georgia, US",13261,32.03650571,-84.19821492,Micropolitan,30352.0,4242,13976.01,136,448.08
2021-11-11 06:21:50 UTC,county,Georgia,Talbot,"Talbot, Georgia, US",13263,32.69642758,-84.53351366,Non-core,6378.0,739,11586.7,27,423.33
2021-11-11 06:21:50 UTC,county,Georgia,Taliaferro,"Taliaferro, Georgia, US",13265,33.56543317,-82.88136816,Non-core,1665.0,168,10090.09,3,180.18
2021-11-11 06:21:50 UTC,county,Georgia,Tattnall,"Tattnall, Georgia, US",13267,32.04785085,-82.05539188,Non-core,25353.0,3816,15051.47,109,429.93
2021-11-11 06:21:50 UTC,county,Georgia,Taylor,"Taylor, Georgia, US",13269,32.55792548,-84.25077141,Non-core,8193.0,1277,15586.48,37,451.61
2021-11-11 06:21:50 UTC,county,Georgia,Telfair,"Telfair, Georgia, US",13271,31.92829517,-82.93491155,Non-core,16115.0,2269,14080.05,73,452.99
2021-11-11 06:21:50 UTC,county,Georgia,Terrell,"Terrell, Georgia, US",13273,31.77527543,-84.44069698,Small metro,8859.0,1230,13884.19,56,632.13
2021-11-11 06:21:50 UTC,county,Georgia,Thomas,"Thomas, Georgia, US",13275,30.86392347,-83.91847289,Micropolitan,44730.0,7701,17216.63,181,404.65
2021-11-11 06:21:50 UTC,county,Georgia,Tift,"Tift, Georgia, US",13277,31.45743864,-83.5236119,Micropolitan,40510.0,8336,20577.64,183,451.74
2021-11-11 06:21:50 UTC,county,Georgia,Toombs,"Toombs, Georgia, US",13279,32.12059861,-82.32957247,Micropolitan,27048.0,5474,20238.1,172,635.91
2021-11-11 06:21:50 UTC,county,Georgia,Towns,"Towns, Georgia, US",13281,34.91369188,-83.7410746,Non-core,11417.0,1774,15538.23,82,718.23
2021-11-11 06:21:50 UTC,county,Georgia,Treutlen,"Treutlen, Georgia, US",13283,32.40422134,-82.56904553,Non-core,6777.0,1240,18297.18,53,782.06
2021-11-11 06:21:50 UTC,county,Georgia,Troup,"Troup, Georgia, US",13285,33.03349196,-85.02812115,Micropolitan,69774.0,10867,15574.57,315,451.46
2021-11-11 06:21:50 UTC,county,Georgia,Turner,"Turner, Georgia, US",13287,31.71612656,-83.62069378,Non-core,7962.0,1710,21477.02,49,615.42
2021-11-11 06:21:50 UTC,county,Georgia,Twiggs,"Twiggs, Georgia, US",13289,32.67435595,-83.43078662,Small metro,8284.0,1093,13194.11,62,748.43
2021-11-11 06:21:50 UTC,county,Georgia,Union,"Union, Georgia, US",13291,34.82995757,-83.98967069,Non-core,22775.0,3549,15582.88,129,566.41
2021-11-11 06:21:50 UTC,county,Georgia,Upson,"Upson, Georgia, US",13293,32.87920671,-84.30024826,Micropolitan,26216.0,5430,20712.54,181,690.42
2021-11-11 06:21:50 UTC,county,Georgia,Walker,"Walker, Georgia, US",13295,34.73376362,-85.30165174,Medium metro,68824.0,11364,16511.68,153,222.31
2021-11-11 06:21:50 UTC,county,Georgia,Walton,"Walton, Georgia, US",13297,33.78017694,-83.73552314,Large fringe metro,90132.0,15090,16742.11,347,384.99
2021-11-11 06:21:50 UTC,county,Georgia,Ware,"Ware, Georgia, US",13299,31.05449097,-82.42224148,Micropolitan,35599.0,7381,20733.73,248,696.65
2021-11-11 06:21:50 UTC,county,Georgia,Warren,"Warren, Georgia, US",13301,33.41146451,-82.67795848,Non-core,5346.0,765,14309.76,26,486.34
2021-11-11 06:21:50 UTC,county,Georgia,Washington,"Washington, Georgia, US",13303,32.96711864,-82.79357039,Non-core,20461.0,3224,15756.81,121,591.37
2021-11-11 06:21:50 UTC,county,Georgia,Wayne,"Wayne, Georgia, US",13305,31.5521809,-81.91894878,Micropolitan,29767.0,5825,19568.65,172,577.82
2021-11-11 06:21:50 UTC,county,Georgia,Webster,"Webster, Georgia, US",13307,32.04066113,-84.54742852,Non-core,2613.0,268,10256.41,6,229.62
2021-11-11 06:21:50 UTC,county,Georgia,Wheeler,"Wheeler, Georgia, US",13309,32.12009104,-82.72574721,Non-core,7939.0,979,12331.53,36,453.46
2021-11-11 06:21:50 UTC,county,Georgia,White,"White, Georgia, US",13311,34.64624278,-83.74905525,Non-core,28928.0,4805,16610.2,131,452.85
2021-11-11 06:21:50 UTC,county,Georgia,Whitfield,"Whitfield, Georgia, US",13313,34.80987459,-84.96093476,Small metro,103849.0,22799,21953.99,343,330.29
2021-11-11 06:21:50 UTC,county,Georgia,Wilcox,"Wilcox, Georgia, US",13315,31.97496928,-83.43438555,Non-core,8846.0,1281,14481.12,59,666.97
2021-11-11 06:21:50 UTC,county,Georgia,Wilkes,"Wilkes, Georgia, US",13317,33.78290391,-82.74286107,Non-core,9884.0,1564,15823.55,37,374.34
2021-11-11 06:21:50 UTC,county,Georgia,Wilkinson,"Wilkinson, Georgia, US",13319,32.80291082,-83.17140684,Non-core,9078.0,1513,16666.67,45,495.7
2021-11-11 06:21:50 UTC,county,Georgia,Worth,"Worth, Georgia, US",13321,31.55162306,-83.85090513,Small metro,20656.0,3079,14906.08,93,450.23
2021-11-11 06:21:50 UTC,county,Hawaii,Hawaii,"Hawaii, Hawaii, US",15001,19.60121157,-155.5210167,Micropolitan,197658.0,11307,5720.49,125,63.24
2021-11-11 06:21:50 UTC,county,Hawaii,Honolulu,"Honolulu, Hawaii, US",15003,21.45803166,-157.9712182,Medium metro,987638.0,58425,5915.63,724,73.31
2021-11-11 06:21:50 UTC,county,Hawaii,Kauai,"Kauai, Hawaii, US",15007,22.03935037,-159.5966786,Micropolitan,71377.0,2809,3935.44,11,15.41
2021-11-11 06:21:50 UTC,county,Hawaii,Maui,"Maui, Hawaii, US",15009,20.86399628,-156.5689097,Small metro,165281.0,10041,6075.11,98,59.29
2021-11-11 06:21:50 UTC,county,Idaho,Ada,"Ada, Idaho, US",16001,43.4526575,-116.2415516,Medium metro,446052.0,83260,18665.99,797,178.68
2021-11-11 06:21:50 UTC,county,Idaho,Adams,"Adams, Idaho, US",16003,44.89333571,-116.4545247,Non-core,4019.0,535,13311.77,12,298.58
2021-11-11 06:21:50 UTC,county,Idaho,Bannock,"Bannock, Idaho, US",16005,42.67002716,-112.2233311,Small metro,85065.0,13833,16261.68,192,225.71
2021-11-11 06:21:50 UTC,county,Idaho,Bear Lake,"Bear Lake, Idaho, US",16007,42.28269683,-111.3289238,Non-core,5962.0,718,12042.94,13,218.05
2021-11-11 06:21:50 UTC,county,Idaho,Benewah,"Benewah, Idaho, US",16009,47.21754179,-116.6586851,Non-core,9086.0,1276,14043.58,27,297.16
2021-11-11 06:21:50 UTC,county,Idaho,Bingham,"Bingham, Idaho, US",16011,43.2167288,-112.3978437,Micropolitan,45551.0,7016,15402.52,124,272.22
2021-11-11 06:21:50 UTC,county,Idaho,Blaine,"Blaine, Idaho, US",16013,43.4085812,-113.9752658,Micropolitan,21994.0,3103,14108.39,27,122.76
2021-11-11 06:21:50 UTC,county,Idaho,Boise,"Boise, Idaho, US",16015,43.98829931,-115.7309284,Medium metro,7163.0,795,11098.7,10,139.61
2021-11-11 06:21:50 UTC,county,Idaho,Bonner,"Bonner, Idaho, US",16017,48.29996017,-116.6017932,Micropolitan,42711.0,5992,14029.17,107,250.52
2021-11-11 06:21:50 UTC,county,Idaho,Bonneville,"Bonneville, Idaho, US",16019,43.38713372,-111.6161537,Small metro,112397.0,20754,18464.91,218,193.96
2021-11-11 06:21:50 UTC,county,Idaho,Boundary,"Boundary, Idaho, US",16021,48.76684761,-116.4630179,Non-core,11549.0,1617,14001.21,37,320.37
2021-11-11 06:21:50 UTC,county,Idaho,Butte,"Butte, Idaho, US",16023,43.72592209,-113.1735463,Small metro,2602.0,371,14258.26,4,153.73
2021-11-11 06:21:50 UTC,county,Idaho,Camas,"Camas, Idaho, US",16025,43.46665742,-114.8065892,Micropolitan,886.0,107,12076.75,1,112.87
2021-11-11 06:21:50 UTC,county,Idaho,Canyon,"Canyon, Idaho, US",16027,43.61970148,-116.7095499,Medium metro,212230.0,42694,20116.85,545,256.8
2021-11-11 06:21:50 UTC,county,Idaho,Caribou,"Caribou, Idaho, US",16029,42.77149116,-111.5597683,Non-core,6918.0,1022,14773.06,21,303.56
2021-11-11 06:21:50 UTC,county,Idaho,Cassia,"Cassia, Idaho, US",16031,42.28347888,-113.6012409,Micropolitan,23615.0,3924,16616.56,40,169.38
2021-11-11 06:21:50 UTC,county,Idaho,Clark,"Clark, Idaho, US",16033,44.28496071,-112.3505704,Non-core,1077.0,85,7892.29,0,0.0
2021-11-11 06:21:50 UTC,county,Idaho,Clearwater,"Clearwater, Idaho, US",16035,46.67459924,-115.6622393,Non-core,8640.0,1642,19004.63,26,300.93
2021-11-11 06:21:50 UTC,county,Idaho,Custer,"Custer, Idaho, US",16037,44.24186819,-114.2855494,Non-core,4141.0,388,9369.72,6,144.89
2021-11-11 06:21:50 UTC,county,Idaho,Elmore,"Elmore, Idaho, US",16039,43.3507101,-115.4701578,Micropolitan,26433.0,4243,16051.9,47,177.81
2021-11-11 06:21:50 UTC,county,Idaho,Franklin,"Franklin, Idaho, US",16041,42.18332217,-111.8149666,Small metro,13279.0,1670,12576.25,23,173.21
2021-11-11 06:21:50 UTC,county,Idaho,Fremont,"Fremont, Idaho, US",16043,44.22800938,-111.4809943,Micropolitan,12965.0,1569,12101.81,16,123.41
2021-11-11 06:21:50 UTC,county,Idaho,Gem,"Gem, Idaho, US",16045,44.06482372,-116.398376,Medium metro,17052.0,2853,16731.18,62,363.59
2021-11-11 06:21:50 UTC,county,Idaho,Gooding,"Gooding, Idaho, US",16047,42.96927962,-114.8108306,Non-core,15169.0,2316,15267.98,43,283.47
2021-11-11 06:21:50 UTC,county,Idaho,Idaho,"Idaho, Idaho, US",16049,45.84721541,-115.4634436,Non-core,16337.0,2201,13472.49,36,220.36
2021-11-11 06:21:50 UTC,county,Idaho,Jefferson,"Jefferson, Idaho, US",16051,43.82078483,-112.3131749,Small metro,27969.0,4258,15224.0,46,164.47
2021-11-11 06:21:50 UTC,county,Idaho,Jerome,"Jerome, Idaho, US",16053,42.68891267,-114.2655033,Micropolitan,23431.0,4303,18364.56,52,221.93
2021-11-11 06:21:50 UTC,county,Idaho,Kootenai,"Kootenai, Idaho, US",16055,47.67282258,-116.7020872,Small metro,153605.0,29936,19488.95,417,271.48
2021-11-11 06:21:50 UTC,county,Idaho,Latah,"Latah, Idaho, US",16057,46.81587887,-116.7113698,Micropolitan,39239.0,4637,11817.32,37,94.29
2021-11-11 06:21:50 UTC,county,Idaho,Lemhi,"Lemhi, Idaho, US",16059,44.9438088,-113.9309747,Non-core,7798.0,883,11323.42,19,243.65
2021-11-11 06:21:50 UTC,county,Idaho,Lewis,"Lewis, Idaho, US",16061,46.23315327,-116.434146,Non-core,3845.0,798,20754.23,23,598.18
2021-11-11 06:21:50 UTC,county,Idaho,Lincoln,"Lincoln, Idaho, US",16063,43.0012336,-114.1358773,Micropolitan,5321.0,699,13136.63,12,225.52
2021-11-11 06:21:50 UTC,county,Idaho,Madison,"Madison, Idaho, US",16065,43.78141028,-111.6538474,Micropolitan,38705.0,8872,22922.1,40,103.35
2021-11-11 06:21:50 UTC,county,Idaho,Minidoka,"Minidoka, Idaho, US",16067,42.85518524,-113.6357257,Micropolitan,20615.0,3204,15542.08,49,237.69
2021-11-11 06:21:50 UTC,county,Idaho,Nez Perce,"Nez Perce, Idaho, US",16069,46.32638236,-116.7500975,Small metro,40155.0,6245,15552.24,100,249.03
2021-11-11 06:21:50 UTC,county,Idaho,Oneida,"Oneida, Idaho, US",16071,42.1949428,-112.5407838,Non-core,4326.0,564,13037.45,10,231.16
2021-11-11 06:21:50 UTC,county,Idaho,Owyhee,"Owyhee, Idaho, US",16073,42.58016894,-116.1693871,Medium metro,11455.0,1669,14570.06,39,340.46
2021-11-11 06:21:50 UTC,county,Idaho,Payette,"Payette, Idaho, US",16075,44.00545243,-116.7647695,Micropolitan,23041.0,4192,18193.65,66,286.45
2021-11-11 06:21:50 UTC,county,Idaho,Power,"Power, Idaho, US",16077,42.69254894,-112.8395742,Non-core,7713.0,1084,14054.19,15,194.48
2021-11-11 06:21:50 UTC,county,Idaho,Shoshone,"Shoshone, Idaho, US",16079,47.35364087,-115.8916749,Non-core,12526.0,2036,16254.19,61,486.99
2021-11-11 06:21:50 UTC,county,Idaho,Teton,"Teton, Idaho, US",16081,43.75303583,-111.2056773,Micropolitan,11080.0,1679,15153.43,5,45.13
2021-11-11 06:21:50 UTC,county,Idaho,Twin Falls,"Twin Falls, Idaho, US",16083,42.35440512,-114.6685381,Micropolitan,83666.0,16177,19335.21,218,260.56
2021-11-11 06:21:50 UTC,county,Idaho,Valley,"Valley, Idaho, US",16085,44.76728382,-115.5676773,Non-core,10401.0,1516,14575.52,13,124.99
2021-11-11 06:21:50 UTC,county,Idaho,Washington,"Washington, Idaho, US",16087,44.45275475,-116.7847688,Non-core,10025.0,1896,18912.72,47,468.83
2021-11-11 06:21:50 UTC,county,Illinois,Adams,"Adams, Illinois, US",17001,39.98815591,-91.18786813,Micropolitan,66427.0,13659,20562.42,157,236.35
2021-11-11 06:21:50 UTC,county,Illinois,Alexander,"Alexander, Illinois, US",17003,37.18049267,-89.32910838,Small metro,6532.0,781,11956.52,13,199.02
2021-11-11 06:21:50 UTC,county,Illinois,Bond,"Bond, Illinois, US",17005,38.88829622,-89.43534887,Large fringe metro,16712.0,2642,15809.0,27,161.56
2021-11-11 06:21:50 UTC,county,Illinois,Boone,"Boone, Illinois, US",17007,42.32359279,-88.82345779,Medium metro,53606.0,8186,15270.68,84,156.7
2021-11-11 06:21:50 UTC,county,Illinois,Brown,"Brown, Illinois, US",17009,39.96209138,-90.75068024,Non-core,6675.0,1088,16299.63,11,164.79
2021-11-11 06:21:50 UTC,county,Illinois,Bureau,"Bureau, Illinois, US",17011,41.40385234,-89.5283051,Micropolitan,33381.0,4635,13885.14,94,281.6
2021-11-11 06:21:50 UTC,county,Illinois,Calhoun,"Calhoun, Illinois, US",17013,39.16840183,-90.66330078,Large fringe metro,4858.0,720,14820.91,2,41.17
2021-11-11 06:21:50 UTC,county,Illinois,Carroll,"Carroll, Illinois, US",17015,42.06823429,-89.93395545,Non-core,14562.0,2455,16858.95,39,267.82
2021-11-11 06:21:50 UTC,county,Illinois,Cass,"Cass, Illinois, US",17017,39.96991073,-90.24734436,Non-core,12665.0,2711,21405.45,31,244.77
2021-11-11 06:21:50 UTC,county,Illinois,Champaign,"Champaign, Illinois, US",17019,40.13919438,-88.20046615,Small metro,209448.0,28002,13369.43,200,95.49
2021-11-11 06:21:50 UTC,county,Illinois,Christian,"Christian, Illinois, US",17021,39.54581621,-89.27780482,Micropolitan,33231.0,5536,16659.14,83,249.77
2021-11-11 06:21:50 UTC,county,Illinois,Clark,"Clark, Illinois, US",17023,39.33425789,-87.78705622,Non-core,15836.0,2788,17605.46,42,265.22
2021-11-11 06:21:50 UTC,county,Illinois,Clay,"Clay, Illinois, US",17025,38.75388572,-88.48914513,Non-core,13338.0,2684,20122.96,54,404.86
2021-11-11 06:21:50 UTC,county,Illinois,Clinton,"Clinton, Illinois, US",17027,38.60704876,-89.42385254,Large fringe metro,37628.0,7264,19304.77,104,276.39
2021-11-11 06:21:50 UTC,county,Illinois,Coles,"Coles, Illinois, US",17029,39.51949084,-88.22358557,Micropolitan,51736.0,8216,15880.62,131,253.21
2021-11-11 06:21:50 UTC,county,Illinois,Cook,"Cook, Illinois, US",17031,41.84144849,-87.81658794,Large central metro,5223719.0,651472,12471.42,11355,217.37
2021-11-11 06:21:50 UTC,county,Illinois,Crawford,"Crawford, Illinois, US",17033,39.0032229,-87.75954624,Non-core,19088.0,3424,17937.97,31,162.41
2021-11-11 06:21:50 UTC,county,Illinois,Cumberland,"Cumberland, Illinois, US",17035,39.27432424,-88.2401158,Micropolitan,10865.0,1958,18021.17,27,248.5
2021-11-11 06:21:50 UTC,county,Illinois,De Witt,"De Witt, Illinois, US",17039,40.17514519,-88.90959682,Small metro,16042.0,2190,13651.66,30,187.01
2021-11-11 06:21:50 UTC,county,Illinois,DeKalb,"DeKalb, Illinois, US",17037,41.89373302,-88.76958483,Large fringe metro,104200.0,12643,12133.4,134,128.6
2021-11-11 06:21:50 UTC,county,Illinois,Douglas,"Douglas, Illinois, US",17041,39.76768052,-88.21854195,Non-core,19714.0,3373,17109.67,38,192.76
2021-11-11 06:21:50 UTC,county,Illinois,DuPage,"DuPage, Illinois, US",17043,41.85116968,-88.08642662,Large fringe metro,931743.0,112094,12030.57,1393,149.5
2021-11-11 06:21:50 UTC,county,Illinois,Edgar,"Edgar, Illinois, US",17045,39.6809186,-87.74759563,Non-core,17539.0,2723,15525.4,50,285.08
2021-11-11 06:21:50 UTC,county,Illinois,Edwards,"Edwards, Illinois, US",17047,38.41353228,-88.05720863,Non-core,6507.0,1058,16259.41,19,291.99
2021-11-11 06:21:50 UTC,county,Illinois,Effingham,"Effingham, Illinois, US",17049,39.05935711,-88.58969584,Micropolitan,34174.0,6853,20053.26,102,298.47
2021-11-11 06:21:50 UTC,county,Illinois,Fayette,"Fayette, Illinois, US",17051,39.00072038,-89.02452658,Non-core,21724.0,4451,20488.86,67,308.41
2021-11-11 06:21:50 UTC,county,Illinois,Ford,"Ford, Illinois, US",17053,40.59706922,-88.22350769,Small metro,13398.0,2550,19032.69,59,440.36
2021-11-11 06:21:50 UTC,county,Illinois,Franklin,"Franklin, Illinois, US",17055,37.99189086,-88.92567818,Non-core,39127.0,7428,18984.33,116,296.47
2021-11-11 06:21:50 UTC,county,Illinois,Fulton,"Fulton, Illinois, US",17057,40.47289135,-90.20862357,Micropolitan,35418.0,5403,15254.96,84,237.17
2021-11-11 06:21:50 UTC,county,Illinois,Gallatin,"Gallatin, Illinois, US",17059,37.76430935,-88.22953869,Non-core,5157.0,803,15571.07,9,174.52
2021-11-11 06:21:50 UTC,county,Illinois,Greene,"Greene, Illinois, US",17061,39.35907414,-90.388865,Non-core,13218.0,2090,15811.77,40,302.62
2021-11-11 06:21:50 UTC,county,Illinois,Grundy,"Grundy, Illinois, US",17063,41.28569601,-88.41905692,Large fringe metro,50509.0,7666,15177.49,90,178.19
2021-11-11 06:21:50 UTC,county,Illinois,Hamilton,"Hamilton, Illinois, US",17065,38.08163641,-88.53883373,Non-core,8221.0,1380,16786.28,22,267.61
2021-11-11 06:21:50 UTC,county,Illinois,Hancock,"Hancock, Illinois, US",17067,40.40423981,-91.16313899,Micropolitan,18112.0,2882,15912.1,35,193.24
2021-11-11 06:21:50 UTC,county,Illinois,Hardin,"Hardin, Illinois, US",17069,37.51810645,-88.26873022,Non-core,4009.0,630,15714.64,16,399.1
2021-11-11 06:21:50 UTC,county,Illinois,Henderson,"Henderson, Illinois, US",17071,40.81908672,-90.92491462,Micropolitan,6884.0,770,11185.36,14,203.37
2021-11-11 06:21:50 UTC,county,Illinois,Henry,"Henry, Illinois, US",17073,41.3533994,-90.13296166,Medium metro,49464.0,6864,13876.76,79,159.71
2021-11-11 06:21:50 UTC,county,Illinois,Iroquois,"Iroquois, Illinois, US",17075,40.74717633,-87.82466784,Non-core,28169.0,4373,15524.16,81,287.55
2021-11-11 06:21:50 UTC,county,Illinois,Jackson,"Jackson, Illinois, US",17077,37.78595185,-89.38232563,Small metro,58551.0,8203,14010.01,95,162.25
2021-11-11 06:21:50 UTC,county,Illinois,Jasper,"Jasper, Illinois, US",17079,39.01054275,-88.15437049,Non-core,9598.0,1664,17336.95,21,218.8
2021-11-11 06:21:50 UTC,county,Illinois,Jefferson,"Jefferson, Illinois, US",17081,38.29980057,-88.9240025,Micropolitan,38169.0,6730,17632.11,146,382.51
2021-11-11 06:21:50 UTC,county,Illinois,Jersey,"Jersey, Illinois, US",17083,39.08869046,-90.35393073,Large fringe metro,22069.0,3482,15777.79,53,240.16
2021-11-11 06:21:50 UTC,county,Illinois,Jo Daviess,"Jo Daviess, Illinois, US",17085,42.36542373,-90.21094405,Non-core,21834.0,2321,10630.21,29,132.82
2021-11-11 06:21:50 UTC,county,Illinois,Johnson,"Johnson, Illinois, US",17087,37.45939802,-88.88165419,Non-core,12602.0,2383,18909.7,32,253.93
2021-11-11 06:21:50 UTC,county,Illinois,Kane,"Kane, Illinois, US",17089,41.93842729,-88.42861412,Large fringe metro,530839.0,70234,13230.75,892,168.04
2021-11-11 06:21:50 UTC,county,Illinois,Kankakee,"Kankakee, Illinois, US",17091,41.13746989,-87.86205334,Small metro,111061.0,18499,16656.61,262,235.91
2021-11-11 06:21:50 UTC,county,Illinois,Kendall,"Kendall, Illinois, US",17093,41.59081014,-88.42869583,Large fringe metro,124626.0,16796,13477.12,118,94.68
2021-11-11 06:21:50 UTC,county,Illinois,Knox,"Knox, Illinois, US",17095,40.93148779,-90.2133034,Micropolitan,50999.0,7646,14992.45,173,339.22
2021-11-11 06:21:50 UTC,county,Illinois,LaSalle,"LaSalle, Illinois, US",17099,41.3442613,-88.88633881,Micropolitan,110401.0,15404,13952.77,291,263.58
2021-11-11 06:21:50 UTC,county,Illinois,Lake,"Lake, Illinois, US",17097,42.3224907,-88.00367925,Large fringe metro,703619.0,82659,11747.69,1099,156.19
2021-11-11 06:21:50 UTC,county,Illinois,Lawrence,"Lawrence, Illinois, US",17101,38.71987914,-87.72884035,Non-core,16189.0,3411,21069.86,35,216.2
2021-11-11 06:21:50 UTC,county,Illinois,Lee,"Lee, Illinois, US",17103,41.74583951,-89.29977132,Micropolitan,34527.0,4933,14287.37,64,185.36
2021-11-11 06:21:50 UTC,county,Illinois,Livingston,"Livingston, Illinois, US",17105,40.89188292,-88.55784752,Micropolitan,36324.0,6089,16763.02,99,272.55
2021-11-11 06:21:50 UTC,county,Illinois,Logan,"Logan, Illinois, US",17107,40.12581572,-89.36638784,Micropolitan,29207.0,5047,17280.1,76,260.21
2021-11-11 06:21:50 UTC,county,Illinois,Macon,"Macon, Illinois, US",17115,39.86064913,-88.96342505,Small metro,106512.0,15770,14805.84,253,237.53
2021-11-11 06:21:50 UTC,county,Illinois,Macoupin,"Macoupin, Illinois, US",17117,39.26119767,-89.92424028,Large fringe metro,45719.0,7295,15956.17,110,240.6
2021-11-11 06:21:50 UTC,county,Illinois,Madison,"Madison, Illinois, US",17119,38.83042506,-89.90422563,Large fringe metro,265670.0,41149,15488.76,608,228.86
2021-11-11 06:21:50 UTC,county,Illinois,Marion,"Marion, Illinois, US",17121,38.64963204,-88.91899208,Micropolitan,38084.0,7170,18826.8,148,388.61
2021-11-11 06:21:50 UTC,county,Illinois,Marshall,"Marshall, Illinois, US",17123,41.0327901,-89.34510444,Medium metro,11794.0,1445,12251.99,23,195.01
2021-11-11 06:21:50 UTC,county,Illinois,Mason,"Mason, Illinois, US",17125,40.23917274,-89.91824452,Non-core,13778.0,2199,15960.23,53,384.67
2021-11-11 06:21:50 UTC,county,Illinois,Massac,"Massac, Illinois, US",17127,37.22078441,-88.71036614,Micropolitan,14430.0,2241,15530.15,54,374.22
2021-11-11 06:21:50 UTC,county,Illinois,McDonough,"McDonough, Illinois, US",17109,40.45674722,-90.67775541,Micropolitan,30875.0,3842,12443.72,66,213.77
2021-11-11 06:21:50 UTC,county,Illinois,McHenry,"McHenry, Illinois, US",17111,42.32451172,-88.45248227,Large fringe metro,307789.0,36289,11790.22,336,109.17
2021-11-11 06:21:50 UTC,county,Illinois,McLean,"McLean, Illinois, US",17113,40.48996987,-88.84621113,Small metro,173219.0,23775,13725.4,226,130.47
2021-11-11 06:21:50 UTC,county,Illinois,Menard,"Menard, Illinois, US",17129,40.02742725,-89.80246001,Small metro,12367.0,1787,14449.75,14,113.2
2021-11-11 06:21:50 UTC,county,Illinois,Mercer,"Mercer, Illinois, US",17131,41.20596782,-90.74290052,Medium metro,15693.0,2162,13776.84,37,235.77
2021-11-11 06:21:50 UTC,county,Illinois,Monroe,"Monroe, Illinois, US",17133,38.27594376,-90.17761038,Large fringe metro,33936.0,5379,15850.42,105,309.41
2021-11-11 06:21:50 UTC,county,Illinois,Montgomery,"Montgomery, Illinois, US",17135,39.23198845,-89.47809254,Non-core,29009.0,5116,17635.91,83,286.12
2021-11-11 06:21:50 UTC,county,Illinois,Morgan,"Morgan, Illinois, US",17137,39.71654544,-90.20255104,Micropolitan,34426.0,5203,15113.58,102,296.29
2021-11-11 06:21:50 UTC,county,Illinois,Moultrie,"Moultrie, Illinois, US",17139,39.64187451,-88.62099969,Non-core,14703.0,2491,16942.12,33,224.44
2021-11-11 06:21:50 UTC,county,Illinois,Ogle,"Ogle, Illinois, US",17141,42.04165196,-89.32184679,Micropolitan,51328.0,7912,15414.59,94,183.14
2021-11-11 06:21:50 UTC,county,Illinois,Peoria,"Peoria, Illinois, US",17143,40.78702156,-89.76078901,Medium metro,184463.0,27577,14949.88,378,204.92
2021-11-11 06:21:50 UTC,county,Illinois,Perry,"Perry, Illinois, US",17145,38.08510853,-89.36856219,Non-core,21384.0,4408,20613.54,76,355.41
2021-11-11 06:21:50 UTC,county,Illinois,Piatt,"Piatt, Illinois, US",17147,40.01360584,-88.59319339,Small metro,16427.0,2092,12735.13,14,85.23
2021-11-11 06:21:50 UTC,county,Illinois,Pike,"Pike, Illinois, US",17149,39.62265059,-90.8877017,Non-core,15754.0,2708,17189.29,58,368.16
2021-11-11 06:21:50 UTC,county,Illinois,Pope,"Pope, Illinois, US",17151,37.41391284,-88.56152109,Non-core,4249.0,569,13391.39,6,141.21
2021-11-11 06:21:50 UTC,county,Illinois,Pulaski,"Pulaski, Illinois, US",17153,37.22631423,-89.13085001,Non-core,5611.0,1072,19105.33,12,213.87
2021-11-11 06:21:50 UTC,county,Illinois,Putnam,"Putnam, Illinois, US",17155,41.2013541,-89.2869272,Micropolitan,5746.0,586,10198.4,4,69.61
2021-11-11 06:21:50 UTC,county,Illinois,Randolph,"Randolph, Illinois, US",17157,38.05095369,-89.82512254,Non-core,32546.0,5615,17252.5,103,316.48
2021-11-11 06:21:50 UTC,county,Illinois,Richland,"Richland, Illinois, US",17159,38.71240969,-88.08475366,Non-core,15881.0,2916,18361.56,58,365.22
2021-11-11 06:21:50 UTC,county,Illinois,Rock Island,"Rock Island, Illinois, US",17161,41.46613806,-90.57042164,Medium metro,145275.0,19623,13507.49,370,254.69
2021-11-11 06:21:50 UTC,county,Illinois,Saline,"Saline, Illinois, US",17165,37.75332999,-88.54119706,Non-core,24231.0,4428,18274.11,71,293.01
2021-11-11 06:21:50 UTC,county,Illinois,Sangamon,"Sangamon, Illinois, US",17167,39.75836914,-89.65872023,Small metro,197661.0,26344,13327.87,291,147.22
2021-11-11 06:21:50 UTC,county,Illinois,Schuyler,"Schuyler, Illinois, US",17169,40.1571798,-90.61114163,Non-core,7064.0,1134,16053.23,12,169.88
2021-11-11 06:21:50 UTC,county,Illinois,Scott,"Scott, Illinois, US",17171,39.6429169,-90.47814431,Micropolitan,5047.0,718,14226.27,7,138.7
2021-11-11 06:21:50 UTC,county,Illinois,Shelby,"Shelby, Illinois, US",17173,39.39133527,-88.80611122,Non-core,21832.0,3659,16759.8,50,229.02
2021-11-11 06:21:50 UTC,county,Illinois,St. Clair,"St. Clair, Illinois, US",17163,38.46996033,-89.93063427,Large fringe metro,263463.0,37016,14049.79,610,231.53
